,accuracy,formatted_address,google_place_id,input_string,latitude,longitude,number_of_results,postcode,status,type
0,ROOFTOP,"135 4th St #4000, San Francisco, CA 94103, USA",Ei40MDAwLCAxMzUgNHRoIFN0LCBTYW4gRnJhbmNpc2NvLCBDQSA5NDEwMywgVVNBIiAaHgoWChQKEglTEbKgh4CFgBFwOGfisZpY6hIENDAwMA,135 4th St Ste 4000,37.7843318,-122.4033663,1,94103,OK,subpremise
1,ROOFTOP,"425 Ellis St, New Britain, CT 06051, USA",ChIJoxnKqqWz54kR0sUwCIP5nP0,425 Elis St,41.6583435,-72.7657637,1,06051,OK,premise
2,ROOFTOP,"3111 16th St, San Francisco, CA 94103, USA",ChIJtfptQyJ-j4ARFoWD1CsdFpE,3111 16th St,37.7647687,-122.4223512,2,94103,OK,street_address
3,ROOFTOP,"309 Clement St, San Francisco, CA 94118, USA",ChIJ7Tyh4TuHhYARdYpz0QD1nCk,309 Clement St,37.7828176,-122.462536,1,94118,OK,premise
4,ROOFTOP,"800 Van Ness Ave, San Francisco, CA 94109, USA",ChIJrVJzEJeAhYAR-n1omLJc5OA,800 Van Ness Ave Bldg,37.7830748,-122.4206163,1,94109,OK,street_address
5,ROOFTOP,"645 5th St, San Francisco, CA 94107, USA",ChIJw2IJsdV_j4AR1f14H4JNWHM,645 5th St,37.7768403,-122.397702,1,94107,OK,premise
6,ROOFTOP,"977 Howard St, San Francisco, CA 94103, USA",ChIJwx3jXIGAhYARDiLGF8tNfJk,977 Howard St,37.780055,-122.4064418,2,94103,OK,premise
7,ROOFTOP,"680 Folsom St #120, San Francisco, CA 94107, USA",EjAxMjAsIDY4MCBGb2xzb20gU3QsIFNhbiBGcmFuY2lzY28sIENBIDk0MTA3LCBVU0EiHxodChYKFAoSCZ-uWDN8gIWAEW2rgy446ZMPEgMxMjA,680 Folsom St Ste 120,37.7845584,-122.3985641,1,94107,OK,subpremise
8,ROOFTOP,"1200 16th St NW, Washington, DC 20036, USA",ChIJr3hle7-3t4kRmrCXb_1dBvg,1200 16th St,38.9059784,-77.0369264,2,20036,OK,premise
9,ROOFTOP,"250 Fell St, San Francisco, CA 94102, USA",ChIJ09wqzJiAhYARUUr3grEW5Dk,250 Fell St,37.7762372,-122.4220764,1,94102,OK,premise
10,ROOFTOP,"4906 Fray Ave, Richmond, CA 94804, USA",ChIJrwPvZVp4hYARQvmd7l5rzmk,4906 Fray Ave,37.9225673,-122.3230858,1,94804,OK,premise
11,ROOFTOP,"1123 Taraval, San Francisco, CA 94116, USA",ChIJs-z8TpB9j4ARjcN86HCjczw,1123 Taraval St,37.7428181,-122.4783734,1,94116,OK,street_address
12,ROOFTOP,"100 Pine St #1250, San Francisco, CA 94111, USA",Ei8xMjUwLCAxMDAgUGluZSBTdCwgU2FuIEZyYW5jaXNjbywgQ0EgOTQxMTEsIFVTQSIgGh4KFgoUChIJ3xDjK2KAhYARJ9gqYmwf7NUSBDEyNTA,100 Pine St Ste 1250,37.7925318,-122.3988929,1,94111,OK,subpremise
13,ROOFTOP,"101 Waller St #347, San Francisco, CA 94102, USA",EjAzNDcsIDEwMSBXYWxsZXIgU3QsIFNhbiBGcmFuY2lzY28sIENBIDk0MTAyLCBVU0EiHxodChYKFAoSCdmlPE6ggIWAEW13HbbzsrIWEgMzNDc,101 Waller St Apt 347,37.7719582,-122.426073,1,94102,OK,subpremise
14,ROOFTOP,"738 42nd Ave, San Francisco, CA 94121, USA",ChIJQ6mcW6WHhYARCa5VKZBTqm0,738 42nd Ave,37.774717,-122.5023322,1,94121,OK,premise
15,ROOFTOP,"1366 Turk St #7c, San Francisco, CA 94109, USA",Ei43YywgMTM2NiBUdXJrIFN0LCBTYW4gRnJhbmNpc2NvLCBDQSA5NDEwOSwgVVNBIh4aHAoWChQKEgkLYW6ku4CFgBFDs7spgqBDExICN2M,1366 Turk St.  Apt 7c,37.780773,-122.4315001,1,94109,OK,subpremise
16,ROOFTOP,"163 Jessie St, San Francisco, CA 94105, USA",ChIJYfk0B4iAhYARiFiwK6toRlQ,163 Jessie St,37.7871439,-122.4017976,1,94105,OK,street_address
17,ROOFTOP,"2708 24th St, Lubbock, TX 79410, USA",ChIJ8fG4aU5t_oYRqnyrJn_OzLU,2708 24th St,33.5727896,-101.8758396,3,79410,OK,premise
18,ROOFTOP,"50 Post St #65a, San Francisco, CA 94104, USA",Ei02NWEsIDUwIFBvc3QgU3QsIFNhbiBGcmFuY2lzY28sIENBIDk0MTA0LCBVU0EiHxodChYKFAoSCUOAoUqIgIWAERA-0x1JgexqEgM2NWE,50 Post St Unit 65a,37.7891638,-122.4029793,1,94104,OK,subpremise
19,ROOFTOP,"470 Central Ave #5, Alameda, CA 94501, USA",Eio1LCA0NzAgQ2VudHJhbCBBdmUsIEFsYW1lZGEsIENBIDk0NTAxLCBVU0EiHRobChYKFAoSCVVOmlYhgY-AETlN1EM4B7hLEgE1,470 Central Ave Apt 5,37.7712893,-122.2829559,1,94501,OK,subpremise
20,ROOFTOP,"1218 Newhall St, San Francisco, CA 94124, USA",ChIJQRuGwAV_j4ARb_cekA0DA60,1218 Newhall St,37.7365009,-122.391766,2,94124,OK,premise
21,ROOFTOP,"1503 North Point St, San Francisco, CA 94123, USA",ChIJ68Ew_NiAhYARSeom1Ed_OC4,1503 North Point St,37.8041195,-122.4321524,1,94123,OK,street_address
22,ROOFTOP,"2057 Divisadero St, San Francisco, CA 94115, USA",ChIJlyawV8mAhYARd7iYJSALM68,2057 Divisadero St,37.7888449,-122.440907,2,94115,OK,premise
23,ROOFTOP,"29 Lee Ave, Bayville, NJ 08721, USA",ChIJK8kspnGfwYkRFg5AlOeeqUc,29 Lee Ave,39.877436,-74.16195700000002,2,08721,OK,premise
24,ROOFTOP,"233 Bay Ridge Dr, Daly City, CA 94014, USA",ChIJqYL-bcx-j4ARsbs37rUuZsw,233 Bay Ridge Dr,37.6996408,-122.417725,2,94014,OK,premise
25,ROOFTOP,"4104 24th St, San Francisco, CA 94114, USA",ChIJF1IfZhJ-j4ARDZHYg3MXrXo,4104 24th St #1019,37.751427,-122.4343503,2,94114,OK,"establishment,finance,point_of_interest,store"
26,ROOFTOP,"1198 Valencia St, San Francisco, CA 94110, USA",ChIJX2URCj9-j4ARLHHqvVi9TGE,1198 Valencia St #105,37.7539332,-122.4212147,1,94110,OK,street_address
27,ROOFTOP,"425 Hayes St, San Francisco, CA 94102, USA",ChIJHaxTo5iAhYARAbsyj9Y1pys,425 A Hayes St,37.77675199999999,-122.4233905,1,94102,OK,street_address
28,ROOFTOP,"167 11th St, Hoboken, NJ 07030, USA",ChIJ_zpeaNhZwokRUxuOG7uQDXo,167 11th Street,40.7499461,-74.0288424,1,07030,OK,street_address
29,ROOFTOP,"88 King St, San Francisco, CA 94107, USA",ChIJF8swG9h_j4ARrgZbcwEO6Ys,88 King  504,37.7806904,-122.3892201,2,94107,OK,street_address
30,ROOFTOP,"17451 CA-120, Big Oak Flat, CA 95305, USA",ChIJq6pmaHDWkIARLT2F9DRbhSE,17451 Highway 120,37.8224086,-120.2607154,1,95305,OK,street_address
31,ROOFTOP,"15 Poncetta Dr, Daly City, CA 94015, USA",ChIJ39DWQUR8j4ARNbOMbFmKPaM,15 Poncetta Drive  106,37.7031372,-122.4756925,1,94015,OK,premise
32,ROOFTOP,"425 1st St UNIT 2702, San Francisco, CA 94105, USA",ChIJgRUNOnqAhYAReyTIy2-sbdo,425 1st St Apt 2702,37.7860625,-122.3921764,1,94105,OK,subpremise
33,ROOFTOP,"315 Culet Dr, Danville, CA 94506, USA",ChIJ54mD4R_yj4AReGgWnKrnEww,315 Culet Dr,37.7950924,-121.9019288,1,94506,OK,premise
34,ROOFTOP,"704 Post St, San Francisco, CA 94109, USA",ChIJJXsg8ZGAhYARQ1pS0uJnREQ,704 Post St,37.7878083,-122.4136347,1,94109,OK,street_address
35,,,,Po Box 590444,,,0,,ZERO_RESULTS,
36,ROOFTOP,"17 Skylark Dr #45, Larkspur, CA 94939, USA",Eio0NSwgMTcgU2t5bGFyayBEciwgTGFya3NwdXIsIENBIDk0OTM5LCBVU0EiHhocChYKFAoSCV84SKuYkIWAEfLYjoCrOE7eEgI0NQ,17 Skylark Dr Apt 45,37.942793,-122.5456238,1,94939,OK,subpremise
37,,,,575 20th St 113 1fl,,,0,,ZERO_RESULTS,
38,ROOFTOP,"525 Edinburgh St, San Francisco, CA 94112, USA",ChIJyaYWKY5-j4ARyuO1X6t_9oQ,525 Eninburgh St,37.7207541,-122.4320927,1,94112,OK,premise
39,GEOMETRIC_CENTER,"2600 Bayshore Blvd, Dunedin, FL 34698, USA",ChIJqQmWirLzwogR-_1q0cRnM2o,2600 Bay Shore Blvd,28.0499117,-82.7804692,2,34698,OK,premise
40,ROOFTOP,"1120 Broadway, San Francisco, CA 94109, USA",ChIJ6yovK-yAhYAR2zzkbRcQNrg,1120 Broadway,37.7969464,-122.4156179,6,94109,OK,street_address
41,RANGE_INTERPOLATED,"31 Kearny St, San Francisco, CA 94108, USA",EiozMSBLZWFybnkgU3QsIFNhbiBGcmFuY2lzY28sIENBIDk0MTA4LCBVU0EiGhIYChQKEgn_RQdQiICFgBFxceTf2LiENRAf,31 Kearny St,37.7883286,-122.403722,1,94108,OK,street_address
42,ROOFTOP,"290 9th St, Jersey City, NJ 07302, USA",ChIJ9ZXPFkxXwokRL3_EU8bIuoQ,290 9th St,40.728684,-74.04649599999999,2,07302,OK,street_address
43,ROOFTOP,"260 Wawona St, San Francisco, CA 94127, USA",ChIJzf5by-p9j4ARV6UjY9y9K1E,260 Wawona St,37.7391831,-122.4693466,2,94127,OK,premise
44,ROOFTOP,"22 Peace Plz, San Francisco, CA 94115, USA",ChIJDzWL0L6AhYAR_lMVYEDJ4t0,22 Peace Plaza  Ste 511,37.7852847,-122.429177,1,94115,OK,street_address
45,ROOFTOP,"1511 Jackson St #1, Oakland, CA 94612, USA",EioxLCAxNTExIEphY2tzb24gU3QsIE9ha2xhbmQsIENBIDk0NjEyLCBVU0EiHRobChYKFAoSCTVxlS9Lh4-AEYfX3sWPfH1qEgEx,1511 Jackson St Apt 1,37.8033351,-122.2647241,1,94612,OK,subpremise
46,ROOFTOP,"33 Kearny St, San Francisco, CA 94108, USA",ChIJyzVdUIiAhYAR3zSaNcuIFaY,33 Kearny St,37.7883469,-122.4037208,2,94108,OK,street_address
47,ROOFTOP,"529 Stevenson St #100, San Francisco, CA 94103, USA",EjMxMDAsIDUyOSBTdGV2ZW5zb24gU3QsIFNhbiBGcmFuY2lzY28sIENBIDk0MTAzLCBVU0EiHxodChYKFAoSCVUGVOWEgIWAEX9B3tUBg8CPEgMxMDA,529 Stevenson St Unit 100,37.7811359,-122.410358,1,94103,OK,subpremise
48,ROOFTOP,"1510 Virginia Ave, Charlottesville, VA 22903, USA",ChIJS48oykmGs4kRMMW6JXYpvpI,1510 Virginia St,38.0381464,-78.49918989999999,3,22903,OK,premise
49,ROOFTOP,"700 O'Farrell St #107, San Francisco, CA 94109, USA",EjMxMDcsIDcwMCBPJ0ZhcnJlbGwgU3QsIFNhbiBGcmFuY2lzY28sIENBIDk0MTA5LCBVU0EiHxodChYKFAoSCa2qjRCRgIWAETKGreY14fZvEgMxMDc,700 Ofarrell St Apt 107,37.7856118,-122.4164638,1,94109,OK,subpremise
50,ROOFTOP,"131 Crown Cir, South San Francisco, CA 94080, USA",ChIJW4jH8dx7j4AR9O2tCZm-WZY,131 Crown Circle,37.66237,-122.455836,2,94080,OK,street_address
51,,,,4104 24th St 572,,,0,,ZERO_RESULTS,
52,ROOFTOP,"5900 3rd St, San Francisco, CA 94124, USA",ChIJ_cAYKBl_j4ARy73O1acVfMQ,5900 3rd St,37.724666,-122.395268,1,94124,OK,premise
53,ROOFTOP,"4609 Mission St, San Francisco, CA 94112, USA",ChIJ__-iUo9-j4ARLzkmCcZcBmg,4609 Mission Street,37.724433,-122.4347249,1,94112,OK,street_address
54,ROOFTOP,"500 Howard St Fl 8th, San Francisco, CA 94105, USA",EjNGbCA4dGgsIDUwMCBIb3dhcmQgU3QsIFNhbiBGcmFuY2lzY28sIENBIDk0MTA1LCBVU0EiIhogChYKFAoSCWncDLN8gIWAEZDs6F5kYceyEgZGbCA4dGg,500 Howard St Fl 8th,37.7885306,-122.3967284,1,94105,OK,subpremise
55,ROOFTOP,"Two Embarcadero Center, 2 Embarcadero Center B6, San Francisco, CA 94111, USA",Ek5CNiwgVHdvIEVtYmFyY2FkZXJvIENlbnRlciwgMiBFbWJhcmNhZGVybyBDZW50ZXIsIFNhbiBGcmFuY2lzY28sIENBIDk0MTExLCBVU0EiHhocChYKFAoSCblObwdhgIWAEes1RAY3ModLEgJCNg,2 Embarcadero Ctr Unit B6,37.79478810000001,-122.3984101,1,94111,OK,subpremise
56,ROOFTOP,"2881 13th St, San Pablo, CA 94806, USA",ChIJEQ4I_Nl3hYAR_KnLEcoOIJk,2881 13th St,37.973754,-122.3508489,1,94806,OK,premise
57,ROOFTOP,"1748 Berkeley St, Santa Monica, CA 90404, USA",ChIJ7Z-65z-7woARc_FZYPgmmcQ,1748 Berkely St,34.03205920000001,-118.463564,1,90404,OK,street_address
58,ROOFTOP,"1748 Berkeley St, Santa Monica, CA 90404, USA",ChIJ7Z-65z-7woARc_FZYPgmmcQ,1748 Berkely St.,34.03205920000001,-118.463564,1,90404,OK,street_address
59,ROOFTOP,"435 Alhambra Rd, South San Francisco, CA 94080, USA",ChIJ2eerj4V5j4ARer-31YpY-Vk,435 Alhambra Rd.,37.6425287,-122.4390933,2,94080,OK,premise
60,ROOFTOP,"555 California St, San Francisco, CA 94104, USA",ChIJgVDtsouAhYARvYch9NRWjkI,555 California St Concours,37.792062,-122.4037148,2,94104,OK,"establishment,point_of_interest"
61,ROOFTOP,"555 California St, San Francisco, CA 94104, USA",ChIJ47fYMIqAhYARbgqBaPZoAJ4,555 California St Cncourse,37.7920903,-122.4036761,1,94104,OK,premise
62,ROOFTOP,"3821 Lawton St, San Francisco, CA 94122, USA",ChIJZ2SXDZCHhYARu6Mdk7dgSSk,3821 Lawton St,37.7566135,-122.503968,1,94122,OK,premise
63,ROOFTOP,"860 Sutter St, San Francisco, CA 94109, USA",ChIJOZXlO5KAhYARLUUIJadgltY,860 Sutter St,37.7887691,-122.4146076,1,94109,OK,premise
64,ROOFTOP,"180 New Montgomery St, San Francisco, CA 94105, USA",ChIJIe3MFn2AhYARkPhedbncAuU,180 New Montgomery St,37.78626939999999,-122.3996049,1,94105,OK,premise
65,ROOFTOP,"620 Sutter St, San Francisco, CA 94102, USA",ChIJd9u22Y2AhYAR632fExbztLk,620 Sutter St,37.7891277,-122.4106381,1,94102,OK,street_address
66,ROOFTOP,"400 Howard St, San Francisco, CA 94105, USA",ChIJO9_eVWOAhYARDCNmyadGjlw,400 Howard St,37.7891003,-122.3958433,1,94105,OK,premise
67,GEOMETRIC_CENTER,"San Francisco International Airport (SFO), San Francisco, CA 94128, USA",ChIJVVVVVYx3j4ARP-3NGldc8qQ,00000 Sf Airport,37.6213129,-122.3789554,1,94128,OK,"airport,establishment,point_of_interest"
68,ROOFTOP,"655 Sutter St, San Francisco, CA 94102, USA",ChIJndztc46AhYARRsKGgCJgVS4,655 Sutter Street,37.7887584,-122.4110569,5,94102,OK,street_address
69,ROOFTOP,"900 North Point St K201, San Francisco, CA 94109, USA",EjZLMjAxLCA5MDAgTm9ydGggUG9pbnQgU3QsIFNhbiBGcmFuY2lzY28sIENBIDk0MTA5LCBVU0EiIBoeChYKFAoSCZsl1MPggIWAEeOyhFfcJbAtEgRLMjAx,900 North Point St K201,37.8058745,-122.4229535,1,94109,OK,subpremise
70,ROOFTOP,"900 North Point St, San Francisco, CA 94109, USA",ChIJvXl2weCAhYARjSxnhzrBfNc,900 North Point St B201a,37.8058763,-122.4229502,2,94109,OK,"establishment,point_of_interest,shopping_mall"
71,ROOFTOP,"2535 3rd St, San Francisco, CA 94107, USA",ChIJEfMFMLp_j4ARDIaIpk836Vk,2535 3rd St,37.7573135,-122.3879385,8,94107,OK,street_address
72,ROOFTOP,"602 Hayes St, San Francisco, CA 94102, USA",ChIJyRnkU6KAhYARLCa9Ebvd2bM,602 Hayes St,37.7767801,-122.4265958,1,94102,OK,premise
73,GEOMETRIC_CENTER,"The Embarcadero, San Francisco, CA, USA",ChIJv9d8mYqAhYARkgvBMfd7j3U,Embarcadero Blvd,37.7980721,-122.3968204,2,,OK,route
74,ROOFTOP,"734 Alfred Nobel Dr, Hercules, CA 94547, USA",ChIJEf6w3852hYARApGRJNyoO-M,734 Alfred Noble Dr,38.02034829999999,-122.2737774,1,94547,OK,street_address
75,ROOFTOP,"26754 Contessa St, Hayward, CA 94545, USA",ChIJZw8ZjLGWj4ARPxv5cUDi9TA,26754 Contessa St,37.6362942,-122.0968592,1,94545,OK,premise
76,ROOFTOP,"419 O'Farrell St, San Francisco, CA 94102, USA",ChIJh4AEz4-AhYARXsIEprl4cwk,419 Ofarrell St,37.7858546,-122.4117609,1,94102,OK,street_address
77,ROOFTOP,"144 Parque Dr, San Francisco, CA 94134, USA",ChIJzdIhJsF-j4AR8fLjdLyD5ro,144 Parque Dr,37.71026579999999,-122.4210101,1,94134,OK,premise
78,ROOFTOP,"350 Townsend St #682, San Francisco, CA 94107, USA",EjI2ODIsIDM1MCBUb3duc2VuZCBTdCwgU2FuIEZyYW5jaXNjbywgQ0EgOTQxMDcsIFVTQSIfGh0KFgoUChIJs2swMNR_j4ARBc1WxkwphcQSAzY4Mg,350 Townsend St Ste 682,37.7762258,-122.3965514,1,94107,OK,subpremise
79,ROOFTOP,"607 Larkin St, San Francisco, CA 94109, USA",ChIJw1XlyJCAhYAR-U-Bc7A0jYw,607 Larkin St,37.78349499999999,-122.417836,1,94109,OK,street_address
80,ROOFTOP,"112 Waverly Pl, New York, NY 10011, USA",ChIJ_XqgSZFZwokR7J2RdgFFv2o,112 Waverly Pl,40.73231699999999,-73.99934499999999,1,10011,OK,street_address
81,ROOFTOP,"400 Fir St, Neodesha, KS 66757, USA",ChIJoTeLTmY0uIcRIZ6L4T3MXOA,At&t V08 Draft Cart 24 Willie Mays Plaza View Level 4,37.4362961,-95.6795162,1,66757,OK,"establishment,health,point_of_interest"
82,ROOFTOP,"400 Fir St, Neodesha, KS 66757, USA",ChIJoTeLTmY0uIcRIZ6L4T3MXOA,At&t Near Rm 3232 24 Willie Mays Plaza Club Level 3,37.4362961,-95.6795162,1,66757,OK,"establishment,health,point_of_interest"
83,ROOFTOP,"1661 Tennessee St Ste 2 K, San Francisco, CA 94107, USA",EjhTdGUgMiBLLCAxNjYxIFRlbm5lc3NlZSBTdCwgU2FuIEZyYW5jaXNjbywgQ0EgOTQxMDcsIFVTQSIjGiEKFgoUChIJgyhWCKV_j4ARTlSow61AlZMSB1N0ZSAyIEs,1661 Tennessee St Ste 2 K,37.7508806,-122.3881427,1,94107,OK,subpremise
84,ROOFTOP,"44899 Trout Ct, Fremont, CA 94539, USA",ChIJY-1Ybo7Gj4AR6R0_xmSqfDc,44899 Trout Ct,37.511798,-121.917983,1,94539,OK,street_address
85,ROOFTOP,"11 Phelan Ave Rm 398, San Francisco, CA 94112, USA",EjNSbSAzOTgsIDExIFBoZWxhbiBBdmUsIFNhbiBGcmFuY2lzY28sIENBIDk0MTEyLCBVU0EiIhogChYKFAoSCeFasaksfI-AEZdEQEwxZZQ5EgZSbSAzOTg,11 Phelan Ave Rm 398,37.7233708,-122.4524995,1,94112,OK,subpremise
86,ROOFTOP,"599 O'Farrell St, San Francisco, CA 94102, USA",ChIJQaNnS5CAhYAReRuXq5tJ41k,599 Ofarrell St,37.7854704,-122.414495,1,94102,OK,premise
87,ROOFTOP,"1332 Van Ness Ave, San Francisco, CA 94109, USA",ChIJuT_gqZWAhYARkx_mX_crZ_c,101 Van Ness Ave 2009,37.7881294,-122.4216528,1,94109,OK,"bar,establishment,point_of_interest"
88,ROOFTOP,"970 Baker St, San Francisco, CA 94115, USA",ChIJz3h0G7SAhYAR4FTqh-eBId0,970 Baker St 3,37.7803184,-122.4415263,2,94115,OK,premise
89,ROOFTOP,"845 Market St #16, San Francisco, CA 94103, USA",Ei8xNiwgODQ1IE1hcmtldCBTdCwgU2FuIEZyYW5jaXNjbywgQ0EgOTQxMDMsIFVTQSIeGhwKFgoUChIJy4kpbIaAhYARnaAg1xAryzUSAjE2,845 Market St Ste 16,37.784219,-122.406176,1,94103,OK,subpremise
90,ROOFTOP,"22 Belden Pl, San Francisco, CA 94104, USA",ChIJsSrqh4mAhYARAmK65guW3Bs,22 Belden Pl,37.7911616,-122.4036097,1,94104,OK,premise
91,ROOFTOP,"1750 Cesar Chavez Ste D, San Francisco, CA 94124, USA",EjZTdGUgRCwgMTc1MCBDZXNhciBDaGF2ZXosIFNhbiBGcmFuY2lzY28sIENBIDk0MTI0LCBVU0EiIRofChYKFAoSCcklpCOuf4-AEcs59-6dcuVrEgVTdGUgRA,1750 Cesar Chavez  Ste D,37.750858,-122.394103,1,94124,OK,subpremise
92,ROOFTOP,"2408 Clement St, San Francisco, CA 94121, USA",ChIJnSeFyAWHhYAR4F9IX949mno,2408 Clement St,37.7822533,-122.4851333,1,94121,OK,premise
93,ROOFTOP,"345 E 46th St, New York, NY 10017, USA",ChIJSUOkoR1ZwokRmqHI1PlHMM4,50 United Nations Plaza,40.7516129,-73.9680645,1,10017,OK,"establishment,point_of_interest"
94,RANGE_INTERPOLATED,"1536 Stockton St, San Francisco, CA 94133, USA",Ei4xNTM2IFN0b2NrdG9uIFN0LCBTYW4gRnJhbmNpc2NvLCBDQSA5NDEzMywgVVNBIhsSGQoUChIJpdJ_ZfGAhYARTd7UXlYoJpYQgAw,1536 Stockton St,37.80003170000001,-122.4091292,3,94133,OK,street_address
95,ROOFTOP,"835 Turk St Rm 215, San Francisco, CA 94102, USA",EjFSbSAyMTUsIDgzNSBUdXJrIFN0LCBTYW4gRnJhbmNpc2NvLCBDQSA5NDEwMiwgVVNBIiIaIAoWChQKEgmvkW3sl4CFgBFzoZfR69i_8hIGUm0gMjE1,835 Turk St Rm 215,37.7815727,-122.4229772,1,94102,OK,subpremise
96,ROOFTOP,"121 Spear St B7, San Francisco, CA 94105, USA",Ei5CNywgMTIxIFNwZWFyIFN0LCBTYW4gRnJhbmNpc2NvLCBDQSA5NDEwNSwgVVNBIh4aHAoWChQKEgnLNaUDZYCFgBHcDRIYOdTQIhICQjc,121 Spear St St Ste B7,37.7918989,-122.3928335,1,94105,OK,subpremise
97,ROOFTOP,"691 Eddy St, San Francisco, CA 94109, USA",ChIJeaq5SZeAhYAR_StLH_asnr4,691 Eddy St,37.7829768,-122.418944,1,94109,OK,premise
98,ROOFTOP,"11320 Lombard St #404, San Francisco, CA 94123, USA",EjM0MDQsIDExMzIwIExvbWJhcmQgU3QsIFNhbiBGcmFuY2lzY28sIENBIDk0MTIzLCBVU0EiJBoiChsSGQoUChIJe05WPCuHhYARbPg-kR-QOdYQuFgSAzQwNA,11320 Lombard St Apt 404,37.7984166,-122.4477681,1,94123,OK,subpremise
99,ROOFTOP,"230 Farallones St, San Francisco, CA 94112, USA",ChIJE8hIrTF8j4ARSj6Xx6FdfwY,230 Farallones St,37.71428969999999,-122.4602472,1,94112,OK,premise
100,ROOFTOP,"1051 Stockton St, Aiken, SC 29801, USA",ChIJI9PzFnNM-IgR3K-h_5_AzQg,1051 Stockton St,33.5882527,-81.7689395,5,29801,OK,premise
101,ROOFTOP,"479 Broadway, Methuen, MA 01844, USA",ChIJr9acoOGp44kRTbaEUSojp70,479 Broadway St,42.738915,-71.19533799999999,1,01844,OK,street_address
102,ROOFTOP,"300 Montgomery St, San Francisco, CA 94104, USA",ChIJu6XnEIqAhYARqBakI5WC_CI,300 Montgomery St,37.7924029,-122.4024972,1,94104,OK,street_address
103,GEOMETRIC_CENTER,"Sloat Blvd, San Francisco, CA, USA",ChIJwbIw-p59j4AR8Sw8-rGvfis,Sloat Blvd Ste 189,37.7341834,-122.4892853,1,,OK,route
104,ROOFTOP,"2316 Julie Ln, South San Francisco, CA 94080, USA",ChIJicnhsdJ7j4ARnZCKwd26Gzs,2316 Julie Ln,37.646364,-122.4573282,1,94080,OK,premise
105,ROOFTOP,"2028 Taraval, San Francisco, CA 94116, USA",ChIJNUGVFYN9j4ARF6JuzvPqQuw,2028 Taraval St 5,37.7427116,-122.4880565,2,94116,OK,premise
106,ROOFTOP,"1399 Church St, San Francisco, CA 94131, USA",ChIJZ-kF_mp-j4ARz0dHxq_JJSI,1399 Church St,37.7486499,-122.4269718,2,94131,OK,premise
107,ROOFTOP,"631 Jackson St, Denver, CO 80206, USA",ChIJa5ptoKF-bIcRLgnX5vT7D_U,631 Jackson St,39.726278,-104.9431518,2,80206,OK,premise
108,ROOFTOP,"2639 24th St, Port Huron, MI 48060, USA",ChIJf1V3PbidJYgR8zncJmkc34s,2639 24th St,42.9542994,-82.4522784,1,48060,OK,premise
109,ROOFTOP,"446 Beach 128th St, Rockaway Park, NY 11694, USA",ChIJv3b1OodCwokRVBDzGm6F7xA,446 Beach St,40.57934520000001,-73.8486374,3,11694,OK,premise
110,GEOMETRIC_CENTER,"Marine View Dr, Dillon Beach, CA, USA",ChIJS2OjMPMshIAREtJZ-HQvdIQ,519 Marine View Dr Ste F,38.24046999999999,-122.9676051,1,,OK,route
111,ROOFTOP,"651 Capistrano Way, San Mateo, CA 94402, USA",ChIJZ07uMm-ej4ARA8EQrvobsQE,651 Capistrano Way,37.5579477,-122.32406,1,94402,OK,premise
112,ROOFTOP,"57 Walter U Lum Pl, San Francisco, CA 94108, USA",ChIJ-WZhSYuAhYAR9q8Y6SILY6g,57 Walter U Lum Pl,37.7950194,-122.4059214,1,94108,OK,street_address
113,ROOFTOP,"2028 Taraval #5, San Francisco, CA 94116, USA",Ei01LCAyMDI4IFRhcmF2YWwsIFNhbiBGcmFuY2lzY28sIENBIDk0MTE2LCBVU0EiHRobChYKFAoSCTVBlRWDfY-AEReibs7z6kLsEgE1,2028 Taraval St Apt 5,37.7427116,-122.4880565,1,94116,OK,subpremise
114,ROOFTOP,"432 Octavia St #1a, San Francisco, CA 94102, USA",EjAxYSwgNDMyIE9jdGF2aWEgU3QsIFNhbiBGcmFuY2lzY28sIENBIDk0MTAyLCBVU0EiHhocChYKFAoSCUHDUQqigIWAEUwbhypvpMFAEgIxYQ,432 Octavia St 1a,37.7763813,-122.4241716,1,94102,OK,subpremise
115,ROOFTOP,"736 Irving St, Otsego, MI 49078, USA",ChIJLZkxOeh9F4gRgpS-BS4lrn4,736 Irving St,42.4518284,-85.6967585,2,49078,OK,street_address
116,ROOFTOP,"1050 Valencia St, San Francisco, CA 94110, USA",ChIJCVGUXz5-j4AR11YJgKTszH4,1050 Valencia St,37.755944,-122.421318,1,94110,OK,street_address
117,ROOFTOP,"1800 McAllister St, San Francisco, CA 94115, USA",ChIJ6xNYzrOAhYARk24YCABiqso,1800 Mcallister St,37.7774834,-122.441934,1,94115,OK,premise
118,ROOFTOP,"1980 Vallejo St, San Francisco, CA 94123, USA",ChIJeyIMn8SAhYARhIVzGWEggJo,1980 Vallejo St 8,37.7961401,-122.4299581,2,94123,OK,premise
119,ROOFTOP,"1007 Anza St, San Francisco, CA 94118, USA",ChIJecJpCTiHhYAR9clwWYlhEhY,1007 Anza St,37.7791819,-122.4590476,2,94118,OK,street_address
120,ROOFTOP,"145 Jefferson St #400, San Francisco, CA 94133, USA",EjM0MDAsIDE0NSBKZWZmZXJzb24gU3QsIFNhbiBGcmFuY2lzY28sIENBIDk0MTMzLCBVU0EiHxodChYKFAoSCRlJyGzjgIWAEVBaormFArKTEgM0MDA,145 Jefferson St Ste 400,37.8080677,-122.4146499,1,94133,OK,subpremise
121,ROOFTOP,"130 Gardenside Dr #304, San Francisco, CA 94131, USA",EjQzMDQsIDEzMCBHYXJkZW5zaWRlIERyLCBTYW4gRnJhbmNpc2NvLCBDQSA5NDEzMSwgVVNBIh8aHQoWChQKEgm_p05CCH6PgBEavc8EeMhUGRIDMzA0,130 Gardenside Dr Apt 304,37.7534534,-122.4448218,1,94131,OK,subpremise
122,ROOFTOP,"4401 Cabrillo St, San Francisco, CA 94121, USA",ChIJm8JsibqHhYAR07s0JVocxNo,4401 Cabrillo St A,37.7732521,-122.5059353,1,94121,OK,premise
123,ROOFTOP,"2001 Fillmore St, San Francisco, CA 94115, USA",ChIJFYZ6v8eAhYARcJXxS7HOass,2001 Fillmore Street,37.7880772,-122.4339391,1,94115,OK,premise
124,ROOFTOP,"1356 Van Ness Ave, San Francisco, CA 94109, USA",ChIJRzwZBJWAhYAROqn17kp97tA,1356 Van Ness Ave,37.7884115,-122.4216576,2,94109,OK,street_address
125,ROOFTOP,"415 Mission St Fl 5th, San Francisco, CA 94105, USA",EjRGbCA1dGgsIDQxNSBNaXNzaW9uIFN0LCBTYW4gRnJhbmNpc2NvLCBDQSA5NDEwNSwgVVNBIiIaIAoWChQKEgnlwlxqY4CFgBFa_AAU8eMXcRIGRmwgNXRo,415 Mission St St Fl 5th,37.7898162,-122.3969054,1,94105,OK,subpremise
126,ROOFTOP,"4653 Mission St, San Francisco, CA 94112, USA",ChIJQUOZV49-j4ARroqwbSPj1Wo,4653 Mission St,37.7238218,-122.4352632,1,94112,OK,street_address
127,RANGE_INTERPOLATED,"4316 Balboa St, San Francisco, CA 94121, USA",Eiw0MzE2IEJhbGJvYSBTdCwgU2FuIEZyYW5jaXNjbywgQ0EgOTQxMjEsIFVTQSIbEhkKFAoSCQcdPWiwh4WAEYaTPHvPTUu1ENwh,4316 Balboa Street,37.7755266,-122.5052307,1,94121,OK,street_address
128,ROOFTOP,"329 W Portal Ave, San Francisco, CA 94127, USA",ChIJjf23AMB9j4ARnrh5yRuuwRI,329 West Portal Ave,37.7374342,-122.4693135,1,94127,OK,premise
129,ROOFTOP,"836 Divisadero St, San Francisco, CA 94117, USA",ChIJe5ppTLCAhYARlf317thoFzM,836 Divisadero St,37.7774601,-122.4380152,2,94117,OK,street_address
130,ROOFTOP,"1254 Hyde St, San Francisco, CA 94109, USA",ChIJc4O-vOyAhYARKPFzIeSQ4DM,1254 Hyde St,37.7926588,-122.4176276,1,94109,OK,street_address
131,ROOFTOP,"1700 O Farrell St, Reno, NV 89503, USA",ChIJ8VF4IuVGmYAR8anZs8LMBEk,1700 O'farrell St,39.5450604,-119.8444308,2,89503,OK,premise
132,ROOFTOP,"815 O'Farrell St, San Francisco, CA 94109, USA",ChIJO4P0LZGAhYARC-t8GoLiPmM,815 O'farrell St 508,37.784976,-122.4182185,2,94109,OK,street_address
133,ROOFTOP,"570 4th St, Lakeport, CA 95453, USA",ChIJJXzJx-Dlg4ARByZY3ftqGWc,570 4th St,39.0447837,-122.9196634,1,95453,OK,premise
134,ROOFTOP,"1661 Tennessee St #3b, San Francisco, CA 94107, USA",EjMzYiwgMTY2MSBUZW5uZXNzZWUgU3QsIFNhbiBGcmFuY2lzY28sIENBIDk0MTA3LCBVU0EiHhocChYKFAoSCYMoVgilf4-AEU5UqMOtQJWTEgIzYg,1661 Tennessee St Suite 3b,37.7508806,-122.3881427,1,94107,OK,subpremise
135,ROOFTOP,"335 Buckingham Way, San Francisco, CA 94132, USA",ChIJDzsnLLt9j4ARY8t0BmEqY78,335 Buckingham Way 101,37.7278745,-122.4800823,2,94132,OK,"establishment,point_of_interest,premise"
136,ROOFTOP,"1827 Irving St, San Francisco, CA 94122, USA",ChIJG1gogmWHhYARq4fK8eVE_tU,1827 Irving St,37.7633762,-122.4777185,2,94122,OK,street_address
137,ROOFTOP,"165 O'Farrell St, San Francisco, CA 94102, USA",ChIJobsKTI-AhYAR6GhKe3yZDkQ,165 O'farrell St,37.7862462,-122.407371,1,94102,OK,premise
138,ROOFTOP,"52 Grove St, New York, NY 10014, USA",ChIJDzhzeJNZwokRSR572wh2Vkk,52 Grove St,40.7329269,-74.0034562,2,10014,OK,premise
139,ROOFTOP,"348 Pine St, San Francisco, CA 94104, USA",ChIJAXbeA4qAhYARJKoy_O2tD0U,348 Pine St,37.7921001,-122.4018752,1,94104,OK,"establishment,food,meal_takeaway,point_of_interest,restaurant,store"
140,ROOFTOP,"160 14th St, San Francisco, CA 94103, USA",ChIJd2MDmCZ-j4ARIOI_zC2wHLE,160 14th Street St,37.7686532,-122.4169507,2,94103,OK,premise
141,ROOFTOP,"845 Market St, San Francisco, CA 94103, USA",ChIJy4kpbIaAhYARnaAg1xAryzU,845 Market St Fe-3,37.784219,-122.406176,1,94103,OK,street_address
142,ROOFTOP,"2394 45th Ave, San Francisco, CA 94116, USA",ChIJ10otrXx9j4ARpbI9kIDiDt8,2394 45th Ave,37.7419749,-122.5034009,1,94116,OK,premise
143,ROOFTOP,"3601 Lyon St, San Francisco, CA 94123, USA",ChIJF1GD5tSGhYARIj7vCLS7Ses,3601 Lyon St,37.8039462,-122.4485562,1,94123,OK,street_address
144,ROOFTOP,"428 11th St, San Francisco, CA 94103, USA",ChIJIe54sih-j4ARGjPr0e4s1S4,428 11 Th St,37.769779,-122.4120171,1,94103,OK,premise
145,ROOFTOP,"708 Kearny St, San Francisco, CA 94108, USA",ChIJ0yWwI4uAhYARBt_X1MBCZPM,708 Kearny St,37.7946661,-122.4046908,1,94108,OK,street_address
146,GEOMETRIC_CENTER,"NW Irving St, Portland, OR, USA",ChIJwR4FAAAKlVQRJR0Y5-PXmJw,Irving Street St,45.5278311,-122.6883887,3,,OK,route
147,ROOFTOP,"3295 19th St, Boulder, CO 80304, USA",ChIJkX8NJY_ua4cRimetEXiax6g,3295 19th Street,40.03392059999999,-105.2730219,1,80304,OK,premise
148,ROOFTOP,"484 Lake Park Ave #448, Oakland, CA 94610, USA",Ei40NDgsIDQ4NCBMYWtlIFBhcmsgQXZlLCBPYWtsYW5kLCBDQSA5NDYxMCwgVVNBIh8aHQoWChQKEgmxHSnnQ4ePgBE6IKKiMV07rxIDNDQ4,484 Lake Park Ave Unit 448,37.8109338,-122.2471761,1,94610,OK,subpremise
149,ROOFTOP,"3915 24th St a, San Francisco, CA 94114, USA",ChIJK4ObYxN-j4AR-pOcThvzVAs,3915 24th Street,37.7513918,-122.4300348,1,94114,OK,"beauty_salon,establishment,point_of_interest"
150,ROOFTOP,"909 Howard Ave, Burlingame, CA 94010, USA",ChIJB8EK8-6dj4ARMo7GPBk_Hwc,909 Howard Ave.,37.5799153,-122.3415068,1,94010,OK,premise
151,ROOFTOP,"936 Detroit Ave #D, Concord, CA 94518, USA",ChIJCSsScAVhhYARNd1z_SXyXa8,936 Detroit Ave  D,37.9497524,-122.0271844,1,94518,OK,"establishment,food,point_of_interest"
152,ROOFTOP,"510 S Neil St, Champaign, IL 61820, USA",ChIJ5yKD5jXXDIgRkGdSK3ffJl8,2018 Green St,40.1108374,-88.2430986,1,61820,OK,"establishment,point_of_interest,real_estate_agency"
153,ROOFTOP,"422 Haight St, San Francisco, CA 94117, USA",ChIJNa7rNqGAhYAR4ycQXWvRv9Y,422 Haight St.,37.7724268,-122.4292973,1,94117,OK,street_address
154,ROOFTOP,"501 Buckingham Way, San Francisco, CA 94132, USA",ChIJ14kEYbt9j4ARuLkcVW-T0kA,501 Buckingham Way,37.7297335,-122.4790533,1,94132,OK,premise
155,ROOFTOP,"1434 18th St, Santa Monica, CA 90404, USA",ChIJ1etdLTS7woARXziA97JiGhM,1434 18 St,34.0263105,-118.4812888,1,90404,OK,premise
156,ROOFTOP,"452 Ellicott Loop, San Jose, CA 95123, USA",ChIJXXKnDT0ujoAROo59MgvdRkI,452 Ellicott Loop,37.2501293,-121.7970608,1,95123,OK,street_address
157,ROOFTOP,"535 Castro St, San Francisco, CA 94114, USA",ChIJwSg6KBt-j4AR22rNtf9pwRU,535 Castro St,37.7602727,-122.4348157,4,94114,OK,street_address
158,ROOFTOP,"527 Castro St, San Francisco, CA 94114, USA",ChIJCXPmKBt-j4AROVriSLL1pJw,527 Castro St,37.760374,-122.4347051,2,94114,OK,street_address
159,ROOFTOP,"386 Geary St, San Francisco, CA 94102, USA",ChIJKZyM_o6AhYARXKHjBof0JPQ,386 Geary St,37.7873682,-122.4096435,2,94102,OK,street_address
160,ROOFTOP,"1476 Haight St, San Francisco, CA 94117, USA",ChIJL6ozzayAhYARkpKC4QdMdTw,1476 Haight St Bldg,37.7701539,-122.4467122,1,94117,OK,street_address
161,ROOFTOP,"711 Fillmore St, San Francisco, CA 94117, USA",ChIJc4068qSAhYAR2IDeVUekDA4,711 Fillmore St,37.7760343,-122.4314537,2,94117,OK,street_address
162,ROOFTOP,"3251 20th Ave #159, San Francisco, CA 94132, USA",EjAxNTksIDMyNTEgMjB0aCBBdmUsIFNhbiBGcmFuY2lzY28sIENBIDk0MTMyLCBVU0EiHxodChYKFAoSCT-TS7m7fY-AEff88S4CRlk4EgMxNTk,3251 20th Ave Unit 159,37.7280817,-122.4770808,1,94132,OK,subpremise
163,ROOFTOP,"4121 18th St, San Francisco, CA 94114, USA",ChIJsXfvzAR-j4ARRcUMHaCDjgg,4121 18th St,37.760701,-122.435456,1,94114,OK,"bar,establishment,night_club,point_of_interest"
164,ROOFTOP,"6236 3rd St #4, San Francisco, CA 94124, USA",Eiw0LCA2MjM2IDNyZCBTdCwgU2FuIEZyYW5jaXNjbywgQ0EgOTQxMjQsIFVTQSIdGhsKFgoUChIJC35P_CF_j4ARPWvGi0Zz9gwSATQ,6236 Third St Apt 4,37.7218463,-122.3962306,1,94124,OK,subpremise
165,ROOFTOP,"4144 18th St, San Francisco, CA 94114, USA",ChIJCRyUyQR-j4ARTYXu6QFfngQ,4144 18th St,37.7609997,-122.435785,1,94114,OK,street_address
166,,,,4912 Third St,,,0,,ZERO_RESULTS,
167,ROOFTOP,"1274 26th Ave, San Francisco, CA 94122, USA",ChIJGWJ843CHhYARuaNEoC-lH8s,1274 26th Ave,37.7637366,-122.4844035,1,94122,OK,premise
168,ROOFTOP,"1737 Post St #370, San Francisco, CA 94115, USA",Ei8zNzAsIDE3MzcgUG9zdCBTdCwgU2FuIEZyYW5jaXNjbywgQ0EgOTQxMTUsIFVTQSIfGh0KFgoUChIJD5nH17iAhYARgkFAdxQx0eESAzM3MA,1737 Post St Ste 370,37.785329,-122.430369,1,94115,OK,subpremise
169,ROOFTOP,"155 12th St, San Francisco, CA 94103, USA",ChIJkU-FWyd-j4ARjj5ujZeNlMM,155 12th Street,37.7723415,-122.4173046,1,94103,OK,premise
170,ROOFTOP,"315 S Maple Ave #104, South San Francisco, CA 94080, USA",EjgxMDQsIDMxNSBTIE1hcGxlIEF2ZSwgU291dGggU2FuIEZyYW5jaXNjbywgQ0EgOTQwODAsIFVTQSIfGh0KFgoUChIJT-alP7l5j4ARIEcuxX-A7s8SAzEwNA,315 Maple Ave Ste 104,37.6425713,-122.4170676,1,94080,OK,subpremise
171,ROOFTOP,"807 Lincoln Way, San Francisco, CA 94122, USA",ChIJUU5eHl2HhYARnFmorbZT1t4,807 Lincoln Way,37.7656707,-122.4667374,2,94122,OK,premise
172,APPROXIMATE,"San Francisco, CA, USA",ChIJIQBpAG2ahYAR_6128GcTUEo,244 California St  Ste 400,37.7749295,-122.4194155,1,,OK,"locality,political"
173,ROOFTOP,"4101 3rd St, San Francisco, CA 94124, USA",ChIJtYSx6gh_j4AR8GZnPaTzvqg,4101 3rd St,37.73989479999999,-122.3886568,1,94124,OK,street_address
174,ROOFTOP,"412 Gaven St, San Francisco, CA 94134, USA",ChIJYXCMQvd-j4ARfRnb-G5hJTM,412 Gaven St,37.7320942,-122.4136211,1,94134,OK,premise
175,ROOFTOP,"1862 Divisadero St, San Francisco, CA 94115, USA",ChIJ739amcmAhYARUPlr9_GeuOw,1862 Divisadero St,37.7870333,-122.4400223,2,94115,OK,premise
176,ROOFTOP,"87 Yerba Buena Ln, San Francisco, CA 94103, USA",ChIJjcOly4eAhYARBCB7M7uQFIk,87 Yerba Buena Ln,37.78524549999999,-122.4040155,1,94103,OK,street_address
177,ROOFTOP,"432 Sutter St, San Francisco, CA 94108, USA",ChIJ7WpPro6AhYARPHkXgteDENI,432 Sutter St,37.7895383,-122.4075752,2,94108,OK,street_address
178,ROOFTOP,"800 Taraval, San Francisco, CA 94116, USA",ChIJC8uuK5J9j4ARaHZTw1wHbLc,800 Taraval St,37.7433015,-122.4748302,1,94116,OK,premise
179,ROOFTOP,"371 Imperial Way #212, Daly City, CA 94015, USA",Ei8yMTIsIDM3MSBJbXBlcmlhbCBXYXksIERhbHkgQ2l0eSwgQ0EgOTQwMTUsIFVTQSIfGh0KFgoUChIJ2b1A5-t7j4ARoR_VKg2vbrMSAzIxMg,371 Imperial Way Apt 212,37.6666389,-122.4641502,1,94015,OK,subpremise
180,ROOFTOP,"601 Portsmouth Ln #601, Foster City, CA 94404, USA",EjI2MDEsIDYwMSBQb3J0c21vdXRoIExuLCBGb3N0ZXIgQ2l0eSwgQ0EgOTQ0MDQsIFVTQSIfGh0KFgoUChIJP9dGQC2fj4ARoa8EbEpHLfISAzYwMQ,601 601 Portsmouth Ln,37.5430523,-122.2667401,1,94404,OK,subpremise
181,ROOFTOP,"1821 San Antonio Ave, Alameda, CA 94501, USA",ChIJD5niWsiGj4AR8iJrRpR59jY,1821 San Antonio Ave B,37.7668678,-122.2559726,1,94501,OK,premise
182,ROOFTOP,"810 Battery St, San Francisco, CA 94111, USA",ChIJ1ztbhF-AhYARJ6WNnnobPWk,810 Battery St,37.7988279,-122.4009289,1,94111,OK,street_address
183,ROOFTOP,"1029 Treat Ave, San Francisco, CA 94110, USA",ChIJd4jx3kd-j4ARAoY0k2nPQp4,1029 Treat Ave,37.7536443,-122.4129901,1,94110,OK,street_address
184,ROOFTOP,"550 Gene Friend Way, San Francisco, CA 94158, USA",ChIJ347egc9_j4ARgxFdTo-jAYY,550 Gene Friend Way,37.7691218,-122.3902439,1,94158,OK,premise
185,ROOFTOP,"865 Market St, San Francisco, CA 94103, USA",ChIJrZxI34WAhYARcySSMXoScFM,865 Market St #9001,37.7840659,-122.4065571,2,94103,OK,street_address
186,ROOFTOP,"5601 Geary Blvd, San Francisco, CA 94121, USA",ChIJmfMaNBCHhYARp8ib7ph4rIs,5601 Geary Blvd,37.7800389,-122.4795839,1,94121,OK,premise
187,ROOFTOP,"2 Townsend St, San Francisco, CA 94107, USA",ChIJD0166XeAhYARqOESev9o--4,2 Townsend St Bldg #1  #106,37.7822907,-122.3888066,1,94107,OK,premise
188,ROOFTOP,"1416 Grant Ave #21, San Francisco, CA 94133, USA",EjAyMSwgMTQxNiBHcmFudCBBdmUsIFNhbiBGcmFuY2lzY28sIENBIDk0MTMzLCBVU0EiHhocChYKFAoSCc8XwVPxgIWAEXEBydilXPO-EgIyMQ,1416 Grant Ave Apt 21,37.79999129999999,-122.4073713,1,94133,OK,subpremise
189,ROOFTOP,"29 S Knoll Rd, Mill Valley, CA 94941, USA",ChIJDaIcLMqahYARxwGkEGJNAig,29 South Knoll Rd,37.9002292,-122.5121591,1,94941,OK,premise
190,ROOFTOP,"3090 26th Ave, San Francisco, CA 94132, USA",ChIJLQlmJqN9j4ARgmcL8JEg8o8,3090 26th Avenue,37.7313143,-122.4815959,1,94132,OK,premise
191,ROOFTOP,"3145 Geary Blvd, San Francisco, CA 94118, USA",ChIJLbJvDzaHhYARbOc3kKyFDp0,3145 Geary Blvd 3238,37.7815273,-122.4528764,2,94118,OK,premise
192,ROOFTOP,"125 Justin Ct, Galt, CA 95632, USA",ChIJWdmOSiyjmoARm2BLNBVnV6k,125 Justin Ct,38.2537133,-121.3168327,2,95632,OK,premise
193,ROOFTOP,"834 Washington St, Evanston, IL 60202, USA",ChIJb6TZyj3QD4gRFUhzKXl6ytI,834 Washington St,42.0325042,-87.6838838,1,60202,OK,street_address
194,ROOFTOP,"4063 24th St, San Francisco, CA 94114, USA",ChIJPw8Y-BJ-j4ARpyzh2bztKpc,4063 24th St.,37.7512497,-122.433258,1,94114,OK,street_address
195,ROOFTOP,"229 Dore St, San Francisco, CA 94103, USA",ChIJkzc34ih-j4ARL3-wAUTCp6o,229 Dore St,37.7717549,-122.4100702,1,94103,OK,premise
196,ROOFTOP,"1 Franklin St, Boston, MA 02108, USA",ChIJzxWLbYNw44kRMfvUa8KktdI,1 Franklin St,42.35631,-71.05945,2,02108,OK,street_address
197,ROOFTOP,"339 Quay Ln, Redwood City, CA 94065, USA",ChIJiYu6NbCYj4ARVO_lIH1-704,339 Quay Ln,37.5269404,-122.2566484,1,94065,OK,premise
198,ROOFTOP,"24 Willie Mays Plaza, San Francisco, CA 94107, USA",ChIJv_u-0dl_j4ARW9yHJWRSSqs,24 Willie Mays Plaza Plz,37.7784199,-122.3906212,1,94107,OK,premise
199,ROOFTOP,"901 Stanyan St, San Francisco, CA 94117, USA",ChIJo2ghrlaHhYARc0U01mYcV8w,901 Stanyan St 12,37.7661327,-122.4530413,2,94117,OK,street_address
200,ROOFTOP,"150 Broadway St, New Orleans, LA 70118, USA",ChIJ7ctZ9iClIIYRbSPLMgGesBM,150 Broadway St,29.92979249999999,-90.13320139999999,2,70118,OK,premise
201,ROOFTOP,"555 California St, San Francisco, CA 94104, USA",ChIJ47fYMIqAhYARbgqBaPZoAJ4,555 California Street,37.7920903,-122.4036761,1,94104,OK,premise
202,ROOFTOP,"415 Mission St, San Francisco, CA 94105, USA",ChIJ5cJcamOAhYARWvwAFPHjF3E,415 Mission St 5,37.7898162,-122.3969054,2,94105,OK,premise
203,ROOFTOP,"900 Bush St, San Francisco, CA 94109, USA",ChIJuUn_iY2AhYARXmvBcX2Zenk,900 Bush St,37.789945,-122.412727,1,94109,OK,street_address
204,ROOFTOP,"1750 Cesar Chavez Bldg H, San Francisco, CA 94124, USA",EjdCbGRnIEgsIDE3NTAgQ2VzYXIgQ2hhdmV6LCBTYW4gRnJhbmNpc2NvLCBDQSA5NDEyNCwgVVNBIiIaIAoWChQKEgnJJaQjrn-PgBHLOffunXLlaxIGQmxkZyBI,1750 Cesar Chavez St Bldg H,37.750858,-122.394103,1,94124,OK,subpremise
205,ROOFTOP,"700 36th Ave, San Francisco, CA 94121, USA",ChIJaSzHQ6aHhYARneOp4Jepw-4,700 36th Ave,37.77554,-122.496011,2,94121,OK,street_address
206,ROOFTOP,"3215 Taraval #5, San Francisco, CA 94116, USA",Ei01LCAzMjE1IFRhcmF2YWwsIFNhbiBGcmFuY2lzY28sIENBIDk0MTE2LCBVU0EiHRobChYKFAoSCTNBf3d7fY-AEVVk0vw5CWJkEgE1,3215 Taraval St Apt 5,37.7417515,-122.5006035,1,94116,OK,subpremise
207,ROOFTOP,"485 O'Farrell St, San Francisco, CA 94102, USA",ChIJdxy114-AhYARHxYptecIOiY,485 Ofarrell St,37.7857415,-122.4126743,1,94102,OK,street_address
208,ROOFTOP,"1598 Sanchez St, San Francisco, CA 94131, USA",ChIJyRSOMGl-j4ARX1C89f-yUVA,1598 Sanchez St Bldg,37.7436649,-122.42909,1,94131,OK,street_address
209,ROOFTOP,"1608 Bush St, San Francisco, CA 94109, USA",ChIJYR1RYZWAhYARgQiQKcCrpts,1608 Bush,37.7883731,-122.4239125,1,94109,OK,street_address
210,ROOFTOP,"2575 Judah St, San Francisco, CA 94122, USA",ChIJnfhUmHeHhYAReadk6CS6uP4,2575 Judah St,37.7610021,-122.4896791,1,94122,OK,street_address
211,ROOFTOP,"9050 Washington Blvd, Culver City, CA 90232, USA",ChIJ81SdOYe5woARlVZzizEwtqQ,9050 W Washington Blvd,34.0252477,-118.390979,1,90232,OK,premise
212,ROOFTOP,"398 Geary St, San Francisco, CA 94102, USA",ChIJwaY--Y6AhYARhrHZziVqWN0,398 Geary St Bldg,37.7873662,-122.409671,1,94102,OK,street_address
213,ROOFTOP,"2109 24th St, San Francisco, CA 94107, USA",ChIJdStbT7N_j4ARe9RBI-F42F0,2109 24th St,37.7531636,-122.4007776,2,94107,OK,premise
214,RANGE_INTERPOLATED,"1 United Nations Plaza, New York, NY 10017, USA",Ei8xIFVuaXRlZCBOYXRpb25zIFBsYXphLCBOZXcgWW9yaywgTlkgMTAwMTcsIFVTQSIaEhgKFAoSCbPRxKMdWcKJEYiZGK-GlKEREAE,1 United Nation Plz,40.7515828,-73.9678533,1,10017,OK,street_address
215,ROOFTOP,"398 Hearst Ave, San Francisco, CA 94112, USA",ChIJ3bg_qXh-j4ARA8MwzmSfcVw,398 Hearst Ave,37.7308033,-122.4464523,1,94112,OK,street_address
216,ROOFTOP,"272 O'Farrell St, San Francisco, CA 94102, USA",ChIJIT_cD4-AhYARzgB8n9qlPao,272 O'farrell St,37.7863747,-122.4092339,1,94102,OK,street_address
217,ROOFTOP,"1160 Battery St, San Francisco, CA 94111, USA",ChIJBQVuAvaAhYARWQPy6TQje64,1160 Battery Street,37.801777,-122.4014635,1,94111,OK,premise
218,ROOFTOP,"20825 Grapevine Dr, Patterson, CA 95363, USA",ChIJ4T6UKSa2kYARO9vP9dKUmuQ,20825 Grapevine Dr,37.4009922,-121.2593505,1,95363,OK,premise
219,ROOFTOP,"1198 Mission St, San Francisco, CA 94102, USA",ChIJbYsWtpyAhYARFAsowHdLZG8,1198 Mission St,37.7776451,-122.4131776,1,94102,OK,street_address
220,ROOFTOP,"3611 18th St, San Francisco, CA 94110, USA",ChIJXRzIABh-j4ARXpgFfSDcBtg,3611 18th Street,37.7614143,-122.4242316,2,94110,OK,premise
221,ROOFTOP,"3900 Geary Blvd, San Francisco, CA 94118, USA",ChIJgVfIDjmHhYAR55d8n36LQnY,3900 Geary Blvd 101,37.7814638,-122.4612534,2,94118,OK,premise
222,ROOFTOP,"200 SW Market St, Portland, OR 97201, USA",ChIJLzOTfBEKlVQRtq8iBXWWI5o,200 Market St,45.511721,-122.6786196,2,97201,OK,premise
223,ROOFTOP,"5 The Embarcadero, San Francisco, CA 94105, USA",ChIJefstkmaAhYARUA-kkkYmq40,5 The Embarcadero St,37.7945537,-122.3953633,1,94105,OK,street_address
224,GEOMETRIC_CENTER,"Beach St & The Embarcadero, San Francisco, CA 94133, United States",ChIJHSGzi_yAhYARnrPmDWAx9ro,39 Pier  K-01,37.80867300000001,-122.409821,1,94133,OK,"establishment,point_of_interest,premise,shopping_mall"
225,,,,100 First St Ste 165,,,0,,ZERO_RESULTS,
226,ROOFTOP,"167 11th St, Hoboken, NJ 07030, USA",ChIJ_zpeaNhZwokRUxuOG7uQDXo,167 11th St,40.7499461,-74.0288424,1,07030,OK,street_address
227,ROOFTOP,"84 Bartlett St, Brockton, MA 02301, USA",ChIJG8hJRSCF5IkRjc1-_wcSreI,84 Bartlett Street,42.0779592,-71.02379909999999,2,02301,OK,premise
228,ROOFTOP,"3109 24th St S, Arlington, VA 22206, USA",ChIJRRphJEuxt4kRMGVDIWZci2k,3109 24th St,38.8490016,-77.0828217,1,22206,OK,premise
229,ROOFTOP,"100 First Plaza, 100 1st St, San Francisco, CA 94105, USA",ChIJpzqAO2OAhYARm7ojtm_jW7I,100 First St,37.789152,-122.3976135,1,94105,OK,premise
230,ROOFTOP,"401 Van Ness Ave, San Francisco, CA 94102, USA",ChIJ28Gus5mAhYAR5NBWsqLc2_A,401 Van Ness Ave Basement,37.7795368,-122.4210212,1,94102,OK,premise
231,ROOFTOP,"720 36th Ave N, St. Petersburg, FL 33704, USA",ChIJ86LtqF7hwogRCFU7By-luP0,720 36th Ave,27.804567,-82.6432258,2,33704,OK,premise
232,ROOFTOP,"545 Bright St, San Francisco, CA 94132, USA",ChIJMWfpVct9j4ARxuWzsc7ikk4,545 Bright St,37.7205786,-122.4638628,4,94132,OK,premise
233,ROOFTOP,"101 Henry Adams St, San Francisco, CA 94103, USA",ChIJI3OCby1-j4ARHU1UYN9Y5_k,101 Henry Adams St Bldg,37.7681477,-122.4034548,1,94103,OK,premise
234,ROOFTOP,"2741 Judah St #2, San Francisco, CA 94122, USA",Ei4yLCAyNzQxIEp1ZGFoIFN0LCBTYW4gRnJhbmNpc2NvLCBDQSA5NDEyMiwgVVNBIh0aGwoWChQKEgkfj8fed4eFgBEa5m34wpyAjBIBMg,2741 Judah St Apt 2,37.7608503,-122.4916772,1,94122,OK,subpremise
235,ROOFTOP,"355 Joaquin Ave, San Leandro, CA 94577, USA",ChIJTYOW_pWPj4ARDYQsbwMG6YI,355 Joaquin Ave,37.7248278,-122.152141,2,94577,OK,premise
236,ROOFTOP,"350 Broderick St APT 221, San Francisco, CA 94117, USA",ChIJdx9VVq6AhYARwY_Ye4nS8lM,350 Broderick St Apt 221,37.7734397,-122.4387558,1,94117,OK,subpremise
237,GEOMETRIC_CENTER,"Beach St & The Embarcadero, San Francisco, CA 94133, United States",ChIJHSGzi_yAhYARnrPmDWAx9ro,Pier 39  K01,37.80867300000001,-122.409821,1,94133,OK,"establishment,point_of_interest,premise,shopping_mall"
238,ROOFTOP,"865 Market St #497, San Francisco, CA 94103, USA",EjA0OTcsIDg2NSBNYXJrZXQgU3QsIFNhbiBGcmFuY2lzY28sIENBIDk0MTAzLCBVU0EiHxodChYKFAoSCa2cSN-FgIWAEXMkkjF6EnBTEgM0OTc,865 Market St Ste 497,37.7840659,-122.4065571,1,94103,OK,subpremise
239,ROOFTOP,"2062 Divisadero St, San Francisco, CA 94115, USA",ChIJVVXxT8mAhYARzLT5qOYB_AQ,2062 Divisadero St,37.7889563,-122.4404636,2,94115,OK,street_address
240,ROOFTOP,"865 Market St Store 497, San Francisco, CA 94103, USA",EjZTdG9yZSA0OTcsIDg2NSBNYXJrZXQgU3QsIFNhbiBGcmFuY2lzY28sIENBIDk0MTAzLCBVU0EiJRojChYKFAoSCa2cSN-FgIWAEXMkkjF6EnBTEglTdG9yZSA0OTc,865 Market St Stor 497,37.7840659,-122.4065571,1,94103,OK,subpremise
241,ROOFTOP,"2901 3rd St, San Francisco, CA 94107, USA",ChIJlXde3qR_j4AR6c1cJTW8KcQ,2901 3rd St,37.7524136,-122.3870014,5,94107,OK,street_address
242,ROOFTOP,"2791 Cowper St, Palo Alto, CA 94306, USA",ChIJz3w_Gfi6j4ARU8ifIw6e7EQ,2791 Cowper St,37.4304271,-122.13036,1,94306,OK,premise
243,ROOFTOP,"77 Jefferson St, Brooklyn, NY 11206, USA",ChIJ7TmuLQZcwokRxoFSR2pNcso,77 Jefferson St,40.69902829999999,-73.93283629999999,3,11206,OK,premise
244,ROOFTOP,"1232 Union St, Lancaster, PA 17603, USA",ChIJ8xhMzKolxokRMuzJUbqxqyg,1232 Union St,40.0231753,-76.3193931,2,17603,OK,premise
245,ROOFTOP,"771 La Playa St #2, San Francisco, CA 94121, USA",ChIJ0x_wP7eHhYARwQB8JjnXvdE,771 La Playa St Apt 2,37.7738983,-122.5103511,1,94121,OK,subpremise
246,ROOFTOP,"434 S Beach St, Ormond Beach, FL 32174, USA",ChIJF0FFYxTb5ogR9bk5DJVe438,434 Beach St,29.2750335,-81.0503014,1,32174,OK,premise
247,,,,4104 24th St Ste 401,,,0,,ZERO_RESULTS,
248,ROOFTOP,"3861 24th St, San Francisco, CA 94114, USA",ChIJAybtlxR-j4ARIX_b2FqcSr0,3861 24th,37.7514056,-122.4289997,2,94114,OK,street_address
249,ROOFTOP,"800 Cortland Ave, San Francisco, CA 94110, USA",ChIJiyJouVl-j4ARwvIHNpldMKc,800 Cortland Ave,37.738695,-122.414467,1,94110,OK,street_address
250,ROOFTOP,"149 Ankeny St, San Francisco, CA 94134, USA",ChIJh5LUmOB-j4ARxkvzMhNL8xw,149 Ankeny St,37.7194764,-122.4055236,2,94134,OK,premise
251,ROOFTOP,"579 E Columbus St, Columbus, OH 43206, USA",ChIJN2sicLqIOIgR2gtjqYzqynM,579 Columbus St,39.946557,-82.9817612,2,43206,OK,premise
252,ROOFTOP,"1099 Front St, Uniondale, NY 11553, USA",ChIJq6reJLp9wokR6AFy78OGRHE,1099 Front St,40.7100776,-73.5895245,2,11553,OK,street_address
253,ROOFTOP,"2026 Chestnut St, Philadelphia, PA 19103, USA",ChIJfc1lCzfGxokRmqDUGU5cuQI,2026 Chestnut St,39.95197539999999,-75.17463649999999,1,19103,OK,premise
254,ROOFTOP,"11 Phelan Ave, San Francisco, CA 94112, USA",ChIJ4VqxqSx8j4ARl0RATDFllDk,11 Phelan Ave,37.7233708,-122.4524995,1,94112,OK,street_address
255,ROOFTOP,"3245 Judah St, San Francisco, CA 94122, USA",ChIJ0W2DepyHhYARiWq4732c9fU,3245 Judah St,37.76067,-122.497101,1,94122,OK,street_address
256,ROOFTOP,"1600 Powell St, San Francisco, CA 94133, USA",ChIJa9y6mfGAhYARXkHlb55esPc,1600 Powell St,37.7994503,-122.4104242,2,94133,OK,premise
257,ROOFTOP,"303 2nd St, San Francisco, CA 94107, USA",ChIJg9dyCnyAhYARWltNAyFiLnM,303 Second St  401,37.7852054,-122.3957991,1,94107,OK,"establishment,point_of_interest"
258,ROOFTOP,"578 3rd Ave Unit A, Brooklyn, NY 11215, USA",EixVbml0IEEsIDU3OCAzcmQgQXZlLCBCcm9va2x5biwgTlkgMTEyMTUsIFVTQSIiGiAKFgoUChIJR0K-VOVawokRWWGzfs-ArVoSBlVuaXQgQQ,578 Third Ave Unit A,40.667677,-73.9944579,1,11215,OK,subpremise
259,ROOFTOP,"608 Divisadero St, San Francisco, CA 94117, USA",ChIJnSNWzq-AhYAR70jNvw6vt9c,608 Divisadero St,37.7752549,-122.4377286,2,94117,OK,street_address
260,ROOFTOP,"465 California St, San Francisco, CA 94104, USA",ChIJ-RA3bYqAhYAR1DcrU2EAF_Q,465 California St,37.792682,-122.4021611,1,94104,OK,street_address
261,ROOFTOP,"3251 20th Ave #156, San Francisco, CA 94132, USA",EjAxNTYsIDMyNTEgMjB0aCBBdmUsIFNhbiBGcmFuY2lzY28sIENBIDk0MTMyLCBVU0EiHxodChYKFAoSCT-TS7m7fY-AEff88S4CRlk4EgMxNTY,3251 20th Ave Ste 156,37.7280817,-122.4770808,1,94132,OK,subpremise
262,ROOFTOP,"1750 Cesar Chavez Unit D, San Francisco, CA 94124, USA",EjdVbml0IEQsIDE3NTAgQ2VzYXIgQ2hhdmV6LCBTYW4gRnJhbmNpc2NvLCBDQSA5NDEyNCwgVVNBIiIaIAoWChQKEgnJJaQjrn-PgBHLOffunXLlaxIGVW5pdCBE,1750 Cesar Chavez  Unit D,37.750858,-122.394103,1,94124,OK,subpremise
263,,,,01 120  4th St,,,0,,ZERO_RESULTS,
264,ROOFTOP,"81 Frank Norris St UNIT 706, San Francisco, CA 94109, USA",ChIJyb1E8pSAhYARTGbH2loBry0,81 Frank Norris St Apt 706,37.7890804,-122.4200528,1,94109,OK,subpremise
265,ROOFTOP,"680 Beach St, Ashland, OR 97520, USA",ChIJta6Xv6AMz1QRfXPRVVEElBY,680 Beach St,42.183091,-122.701568,1,97520,OK,street_address
266,ROOFTOP,"675 Townsend St, San Francisco, CA 94103, USA",ChIJXe8Y3ix-j4ARtC6r5SCY6cg,675 Townsend,37.7704129,-122.4029892,2,94103,OK,street_address
267,RANGE_INTERPOLATED,"1224 Bayside Dr, Palatine, IL 60074, USA",EigxMjI0IEJheXNpZGUgRHIsIFBhbGF0aW5lLCBJTCA2MDA3NCwgVVNBIhsSGQoUChIJOzBTQFG7D4gRUpgCf7TeWcQQyAk,1224 Bayside Dr C,42.1339385,-88.0059938,1,60074,OK,street_address
268,ROOFTOP,"5145 Mission St, San Francisco, CA 94112, USA",ChIJf6K2Zpt-j4ARcXrNdKLyz9o,5145 Mission St,37.7165704,-122.4408037,1,94112,OK,street_address
269,ROOFTOP,"692 Mission St, San Francisco, CA 94105, USA",ChIJucSS-oeAhYARCvZg63yDS4w,692 Mission St,37.7864848,-122.4020645,1,94105,OK,street_address
270,ROOFTOP,"350 Rhode Island St #240, San Francisco, CA 94103, USA",EjYyNDAsIDM1MCBSaG9kZSBJc2xhbmQgU3QsIFNhbiBGcmFuY2lzY28sIENBIDk0MTAzLCBVU0EiHxodChYKFAoSCVGcpOcyfo-AEfIevpOVq1SPEgMyNDA,350 Rode Island  Ste 240,37.7656301,-122.4029238,1,94103,OK,subpremise
271,ROOFTOP,"350 Rhode Island St #240, San Francisco, CA 94103, USA",EjYyNDAsIDM1MCBSaG9kZSBJc2xhbmQgU3QsIFNhbiBGcmFuY2lzY28sIENBIDk0MTAzLCBVU0EiHxodChYKFAoSCVGcpOcyfo-AEfIevpOVq1SPEgMyNDA,350 Rhode Island St Ste 240,37.7656301,-122.4029238,1,94103,OK,subpremise
272,ROOFTOP,"580 Howard St UNIT 302, San Francisco, CA 94105, USA",ChIJUZKB3HyAhYARFAx8BBhZW3g,580 Howard St Unit 302,37.7873042,-122.3980372,1,94105,OK,subpremise
273,ROOFTOP,"580 Howard St UNIT 303, San Francisco, CA 94105, USA",ChIJUZKB3HyAhYARqz3IjnKObh4,580 Howard St Unit 303,37.7873042,-122.3980372,1,94105,OK,subpremise
274,ROOFTOP,"84 Bartlett Dr, Warwick, RI 02886, USA",ChIJze5g7s5N5IkRiPEbx7ZlsxI,84 Bartlett,41.7123534,-71.422095,2,02886,OK,street_address
275,ROOFTOP,"One Ferry Building, San Francisco, CA 94111, USA",ChIJWTGPjmaAhYARxz6l1hOj92w,1 Ferry Building  41,37.7955703,-122.3933208,2,94111,OK,"establishment,point_of_interest"
276,ROOFTOP,"7 Diaz St, Johnston, RI 02919, USA",ChIJQb-RHHpG5IkRUqxDbu9y3GE,7 Diaz Ave,41.8418774,-71.4837131,1,02919,OK,premise
277,ROOFTOP,"2191 Mission St, San Francisco, CA 94110, USA",ChIJ1TRisDx-j4ARu6BxJcKrPcA,2191 Mission St,37.7620385,-122.4191925,1,94110,OK,street_address
278,ROOFTOP,"1750 Cesar Chavez Suite E, San Francisco, CA 94124, USA",EjhTdWl0ZSBFLCAxNzUwIENlc2FyIENoYXZleiwgU2FuIEZyYW5jaXNjbywgQ0EgOTQxMjQsIFVTQSIjGiEKFgoUChIJySWkI65_j4ARyzn37p1y5WsSB1N1aXRlIEU,1750 Cesar Chavez  Suite E,37.750858,-122.394103,1,94124,OK,subpremise
279,ROOFTOP,"1650 Holloway Ave Unit C, San Francisco, CA 94132, USA",EjdVbml0IEMsIDE2NTAgSG9sbG93YXkgQXZlLCBTYW4gRnJhbmNpc2NvLCBDQSA5NDEzMiwgVVNBIiIaIAoWChQKEglT3bZ1sX2PgBGAQZtWBXGA0hIGVW5pdCBD,1650 Holloway Ave Unit C,37.7223946,-122.4786143,1,94132,OK,subpremise
280,ROOFTOP,"404 20th Ave, San Francisco, CA 94121, USA",ChIJETtOShCHhYARaVSgXsZ_D7w,404 20th Ave,37.78029480000001,-122.4791512,1,94121,OK,street_address
281,ROOFTOP,"4448 Mission St, San Francisco, CA 94112, USA",ChIJG2yM7Yh-j4ARRVL1ThDheVA,4448 Mission St,37.726571,-122.4337074,1,94112,OK,premise
282,ROOFTOP,"2163 Polk St, San Francisco, CA 94109, USA",ChIJf137uumAhYAReI1VGM86-jo,2163 Polk St,37.7967581,-122.4220885,1,94109,OK,street_address
283,ROOFTOP,"3995 24th St, San Francisco, CA 94114, USA",ChIJK3EgDxN-j4ARGiDRHomnlHU,3995 24th St,37.7513137,-122.4316811,1,94114,OK,street_address
284,ROOFTOP,"120 4th St NE, Washington, DC 20002, USA",ChIJj4P8ji-4t4kRHGlbNJokMzk,120 4th St,38.8915954,-77.0008661,1,20002,OK,premise
285,ROOFTOP,"505 Sansome St, San Francisco, CA 94111, USA",ChIJMc_8m4qAhYAR7TEkimIvHK8,505 Sansome St,37.795154,-122.4018366,1,94111,OK,premise
286,RANGE_INTERPOLATED,"340 Mission St, San Francisco, CA 94105, USA",EiwzNDAgTWlzc2lvbiBTdCwgU2FuIEZyYW5jaXNjbywgQ0EgOTQxMDUsIFVTQSIbEhkKFAoSCSku0HtjgIWAEWbA0hfMXi6HENQC,340 Mission St,37.7909112,-122.3965451,2,94105,OK,street_address
287,ROOFTOP,"1231 Market St, San Francisco, CA 94103, USA",ChIJoYgVg5yAhYARKVhRpBc8PmE,1231 Market St,37.7781588,-122.4150923,1,94103,OK,premise
288,ROOFTOP,"100 W Portal Ave, San Francisco, CA 94127, USA",ChIJ_ZOX7up9j4ARkbQymGJMHTw,100 W Portal Ave,37.7397003,-122.4673386,1,94127,OK,street_address
289,ROOFTOP,"442 Geary St, San Francisco, CA 94102, USA",ChIJNfm5T46AhYARCDgL2yrxhlo,442 Geary St,37.787168,-122.410733,2,94102,OK,street_address
290,ROOFTOP,"1799 Fulton St, Brooklyn, NY 11233, USA",ChIJ-SsL9XBcwokRmyMU1isjMD4,1799 Fulton St,40.6793543,-73.9272678,1,11233,OK,premise
291,ROOFTOP,"490 Brannan St, San Francisco, CA 94107, USA",ChIJMxdo8NV_j4ARsHBe31wjnEA,490 Brannan St,37.7786321,-122.3965957,1,94107,OK,premise
292,ROOFTOP,"36 2nd St, Shillington, PA 19607, USA",ChIJtRB-cqBxxokRqBnLE-VSXHo,36 2nd St,40.3014288,-75.9679025,1,19607,OK,premise
293,ROOFTOP,"1560 Van Ness Ave, San Francisco, CA 94109, USA",ChIJw7D3MpWAhYARYxFiZRiJbzI,1560 Van Ness Ave,37.7901782,-122.4219093,3,94109,OK,street_address
294,ROOFTOP,"1800 Irving St, San Francisco, CA 94122, USA",ChIJky__fW-HhYARYrD_TQGh1JE,1800 Irving St,37.7637484,-122.4774545,2,94122,OK,street_address
295,ROOFTOP,"27 Drumm St, San Francisco, CA 94111, USA",ChIJn1a8RGGAhYARJtq4tv0pa2Q,27 Drumm St,37.7939886,-122.3967727,1,94111,OK,premise
296,ROOFTOP,"600 5th Ave, New York, NY 10020, USA",ChIJyxv9kv5YwokRhUqfCFEOL8g,600 Fifth Ave,40.7576495,-73.97833179999999,1,10020,OK,street_address
297,ROOFTOP,"350 Parnassus Ave, San Francisco, CA 94117, USA",ChIJrZRvFleHhYARfkF8BxktNpw,350 Parnassus Ave,37.7642347,-122.4562335,1,94117,OK,premise
298,ROOFTOP,"398 Market St, San Francisco, CA 94111, USA",ChIJZbMUzGOAhYARyr2fd2rOAhA,398 Market St,37.7919734,-122.3983374,1,94111,OK,street_address
299,ROOFTOP,"565 Clay St, San Francisco, CA 94111, USA",ChIJI_SJkoqAhYARG3_Qi5nT3co,565 Clay St,37.7945737,-122.4026804,4,94111,OK,premise
300,ROOFTOP,"4094 18th St, San Francisco, CA 94114, USA",ChIJGaqcOht-j4AR2myOc-QVFPs,4094 18th St,37.7610635,-122.4347003,1,94114,OK,street_address
301,ROOFTOP,"687 Howard Ave, Brooklyn, NY 11212, USA",ChIJ0ao5jolcwokR96O1x50lyno,687 Howard St,40.665251,-73.919001,2,11212,OK,street_address
302,ROOFTOP,"199 Fremont Street, 199 Fremont St, San Francisco, CA 94105, USA",ChIJ4wQKu2SAhYARCKlIa8xgsKo,199 Fremont St,37.7898733,-122.3947812,1,94105,OK,premise
303,ROOFTOP,"359 Grant Ave, Leechburg, PA 15656, USA",ChIJG22wHuG6NIgRwrXCz2NtSzU,359 Grant Ave,40.6275909,-79.601383,2,15656,OK,premise
304,GEOMETRIC_CENTER,"I-5, United States",ChIJdVxVr47-nYAR7toBbW4gV5s,100 Upper Loop Road 5th Floor Rd I-5-047,40.7849921,-122.3083332,1,,OK,route
305,ROOFTOP,"1501 Fillmore St, San Francisco, CA 94115, USA",ChIJFyIWormAhYAR0V8qG0FB_08,1501 Fillmore St,37.783411,-122.4329045,4,94115,OK,street_address
306,ROOFTOP,"1155 4th St, San Francisco, CA 94158, USA",ChIJn2v8ZNB_j4AR6VsS4QDD0yc,1155 4th Street St,37.7730834,-122.3911873,1,94158,OK,premise
307,ROOFTOP,"1471 18th Ave, San Francisco, CA 94122, USA",ChIJA_KQFmSHhYARDjElzzXQVM0,1471 18th Ave,37.7604268,-122.4760574,1,94122,OK,premise
308,,,,5469 Taft Ave Apt E,,,0,,ZERO_RESULTS,
309,ROOFTOP,"88 Perry St, San Francisco, CA 94107, USA",ChIJl3PhxX6AhYARjEwMARxCz_E,88 Perry St 322,37.7824465,-122.3964761,1,94107,OK,"establishment,point_of_interest"
310,ROOFTOP,"280 King St, Charleston, SC 29401, USA",ChIJNRTdBxN6_ogRKjsZGBaoFr4,280 King St,32.7827748,-79.9338952,2,29401,OK,premise
311,ROOFTOP,"7 3rd St, San Francisco, CA 94103, USA",ChIJ9RbVbYiAhYARKiZRuIkbuGg,7 Third St,37.787404,-122.40322,2,94103,OK,"cafe,establishment,food,point_of_interest,store"
312,ROOFTOP,"210 Jones St, North Judson, IN 46366, USA",ChIJD90eQsrXE4gRs1wzlDNeR7I,210 Jones St,41.2171709,-86.7784173,3,46366,OK,premise
313,ROOFTOP,"190 St Charles Ave, San Francisco, CA 94132, USA",ChIJFy7dJ0h8j4AR3peOVysjju8,190 Saint Charles Ave,37.710805,-122.4694793,2,94132,OK,premise
314,ROOFTOP,"499 Bay St, San Francisco, CA 94133, USA",ChIJHbXa8-SAhYARz0PQA6S0WdU,499 Bay St,37.8053335,-122.4151034,1,94133,OK,street_address
315,ROOFTOP,"100 First Plaza, 100 1st St, San Francisco, CA 94105, USA",ChIJpzqAO2OAhYARm7ojtm_jW7I,100 1st St,37.789152,-122.3976135,1,94105,OK,premise
316,ROOFTOP,"448 Balboa St, San Francisco, CA 94118, USA",ChIJK2jJqkCHhYARnFAz5BUR944,448 Balboa St,37.7774587,-122.4637229,1,94118,OK,street_address
317,ROOFTOP,"639 Divisadero St Unit A, San Francisco, CA 94117, USA",EjdVbml0IEEsIDYzOSBEaXZpc2FkZXJvIFN0LCBTYW4gRnJhbmNpc2NvLCBDQSA5NDExNywgVVNBIiIaIAoWChQKEglJUlDTr4CFgBGx-77aFHuhFBIGVW5pdCBB,639 Divisadero St Unit A,37.7755436,-122.4382523,1,94117,OK,subpremise
318,ROOFTOP,"113 Bay 20th St #2fl, Brooklyn, NY 11214, USA",Ei0yZmwsIDExMyBCYXkgMjB0aCBTdCwgQnJvb2tseW4sIE5ZIDExMjE0LCBVU0EiHxodChYKFAoSCbtUMIMLRcKJEQC-_B-uu0oUEgMyZmw,575 20th St 113 2fl,40.604037,-74.0033184,1,11214,OK,subpremise
319,ROOFTOP,"1600 Guerrero St, San Francisco, CA 94110, USA",ChIJfw4aXUJ-j4ARCp7nRbzDqK0,1600 Guerrero St,37.7454573,-122.4224591,1,94110,OK,premise
320,ROOFTOP,"443 Madrid St, Hemet, CA 92545, USA",ChIJbf4KfnNm24ARws7l7rCJT4c,443 Madrid St,33.7538222,-117.0113568,2,92545,OK,premise
321,,,,583 20th St 116 2fl,,,0,,ZERO_RESULTS,
322,ROOFTOP,"581 20th St, Brooklyn, NY 11218, USA",ChIJwRJfNyBbwokRFVK6fXUmvGA,581 20th St 115 2fl,40.654908,-73.98079299999999,2,11218,OK,street_address
323,ROOFTOP,"66 Kearny St, San Francisco, CA 94108, USA",ChIJAS6qT4iAhYARB6R28NGuKZ0,66 Keanry St,37.7884781,-122.4033776,2,94108,OK,street_address
324,ROOFTOP,"3120 Ridge Point Dr, Diamond Bar, CA 91765, USA",ChIJM-yDyUcrw4AR4I5M7M46dlo,3120 S Ridge Point Dr,33.9708612,-117.8520455,1,91765,OK,premise
325,ROOFTOP,"578 3rd Ave, New York, NY 10016, USA",ChIJheeIGgRZwokR2vl8MJARewc,Third Ave 578a,40.7484689,-73.9764464,1,10016,OK,street_address
326,ROOFTOP,"658 Vallejo St, San Francisco, CA 94133, USA",ChIJEV8i3fOAhYAR_t3z-haLXsQ,658 Vallejo St,37.7987435,-122.4085014,1,94133,OK,street_address
327,ROOFTOP,"1039 Cotton St, Reading, PA 19602, USA",ChIJyQPmLbFwxokRDToEzMt6b6Q,1039 Cotton St,40.32886,-75.916972,1,19602,OK,street_address
328,ROOFTOP,"2020 Kittredge St #315, Berkeley, CA 94704, USA",Ei8zMTUsIDIwMjAgS2l0dHJlZGdlIFN0LCBCZXJrZWxleSwgQ0EgOTQ3MDQsIFVTQSIfGh0KFgoUChIJoZka9Zx-hYARB5wkhwT0Dd0SAzMxNQ,2020 Kittredge St Apt 315,37.8679221,-122.2695094,1,94704,OK,subpremise
329,ROOFTOP,"80 Rice St, Cambridge, MA 02140, USA",ChIJuXtQiBp344kR3WvHzNlrHiQ,80 Rice St,42.3938113,-71.1301601,2,02140,OK,premise
330,GEOMETRIC_CENTER,"plot3 market st.njeru, Jinja, Uganda",ChIJ0z-QgcWDt4cRQKU2A903DKs,Market St,37.06250000000001,-95.677068,1,,OK,"establishment,point_of_interest"
331,GEOMETRIC_CENTER,"Pear St, Pinole, CA 94564, USA",ChIJ_-u6--B2hYARNCb7YXuC9kU,Pear Street,38.0047975,-122.2906751,10,94564,OK,route
332,RANGE_INTERPOLATED,"2620 Ocean Ave, Brooklyn, NY 11229, USA",EicyNjIwIE9jZWFuIEF2ZSwgQnJvb2tseW4sIE5ZIDExMjI5LCBVU0EiGxIZChQKEgkNk7bbjkTCiRHn9Go_auuUghC8FA,2620 Ocean Ave,40.5976416,-73.9514497,5,11229,OK,street_address
333,ROOFTOP,"1619 S Bentley Ave #201, Los Angeles, CA 90025, USA",EjMyMDEsIDE2MTkgUyBCZW50bGV5IEF2ZSwgTG9zIEFuZ2VsZXMsIENBIDkwMDI1LCBVU0EiHxodChYKFAoSCScEkeV5u8KAEXPYBOHiP0FzEgMyMDE,1619 Bentley Ave Unit 201,34.0488572,-118.4445353,1,90025,OK,subpremise
334,ROOFTOP,"2175 Market St #506, San Francisco, CA 94114, USA",EjE1MDYsIDIxNzUgTWFya2V0IFN0LCBTYW4gRnJhbmNpc2NvLCBDQSA5NDExNCwgVVNBIh8aHQoWChQKEgltLQorHH6PgBGiqh0vxJQH-RIDNTA2,2175 Market St Apt 506,37.7663383,-122.4300466,1,94114,OK,subpremise
335,ROOFTOP,"98 Thrift St, San Francisco, CA 94112, USA",ChIJJ3OscC58j4ARA2YZg_DJuWw,98 Thrift Ave,37.7176586,-122.4559571,1,94112,OK,premise
336,ROOFTOP,"1406 Thomas Ave, San Francisco, CA 94124, USA",ChIJ_6gAJBd_j4ARHfKJPsFDfks,1406 Thomas Ave,37.7285316,-122.3876227,2,94124,OK,premise
337,APPROXIMATE,"Madhya Pradesh 460551, India",ChIJH7qA4avv1TsRbUCe1Hf02X0,460551,21.9615976,78.1450412,1,460551,OK,postal_code
338,ROOFTOP,"180 Howard St G2, San Francisco, CA 94105, USA",Ei9HMiwgMTgwIEhvd2FyZCBTdCwgU2FuIEZyYW5jaXNjbywgQ0EgOTQxMDUsIFVTQSIeGhwKFgoUChIJccL2_GSAhYAREV2vmzCrQsYSAkcy,180 Howard St Ste G2,37.7909253,-122.3932155,1,94105,OK,subpremise
339,ROOFTOP,"24559 Amador St #27, Hayward, CA 94544, USA",EisyNywgMjQ1NTkgQW1hZG9yIFN0LCBIYXl3YXJkLCBDQSA5NDU0NCwgVVNBIh4aHAoWChQKEglR1F-nW5GPgBFzT5Patipa7BICMjc,24559 Amador St Apt 27,37.6556865,-122.0921328,1,94544,OK,subpremise
340,ROOFTOP,"94 Rock Harbor Ln, Spring Lake, NC 28390, USA",ChIJjXfl_nJlq4kRb2fP1ImGZiE,94 Rock Harbor Ln,35.246111,-78.8748212,2,28390,OK,premise
341,ROOFTOP,"351 20th Ave NE, Center Point, AL 35215, USA",ChIJxzHP1ZcOiYgR3nPEVu2wFC8,351 20th Ave,33.6399898,-86.6734243,1,35215,OK,premise
342,ROOFTOP,"2710 Monserat Ave, Belmont, CA 94002, USA",ChIJ6y9UlXafj4AR7H4gR9VQKco,2710 Monserat Ave,37.5142221,-122.3065661,1,94002,OK,premise
343,ROOFTOP,"6 Fairoaks Ct, San Mateo, CA 94403, USA",ChIJMXl5vLKfj4AR1O_0aYwwLfc,6 Fairoaks Court,37.5333864,-122.3229972,3,94403,OK,premise
344,ROOFTOP,"650 7th St, San Francisco, CA 94103, USA",ChIJNwMqpSx-j4ARjalCyQBZs8M,650 7th St,37.7720264,-122.4022822,1,94103,OK,premise
345,ROOFTOP,"5800 Geary Blvd, San Francisco, CA 94121, USA",ChIJyahd6Q-HhYARlqaXu3GFXcM,5800 Geary Blvd,37.7804754,-122.4817285,1,94121,OK,premise
346,ROOFTOP,"1761 Golden Gate Ave #5, San Francisco, CA 94115, USA",EjU1LCAxNzYxIEdvbGRlbiBHYXRlIEF2ZSwgU2FuIEZyYW5jaXNjbywgQ0EgOTQxMTUsIFVTQSIdGhsKFgoUChIJUySXDbGAhYAR79JJ5RTYhDoSATU,1761 Golden Gate Ave Apt 5,37.7784412,-122.439403,1,94115,OK,subpremise
347,ROOFTOP,"4083 24th St, San Francisco, CA 94114, USA",ChIJjam8WBJ-j4ARM0kqJfvA4x4,4083 24th St 460915,37.751028,-122.4335857,1,94114,OK,premise
348,ROOFTOP,"246 Rome St, San Francisco, CA 94112, USA",ChIJSY-o-Sd8j4AR232MRt98CCc,246 Rome St,37.7155352,-122.4469215,1,94112,OK,premise
349,ROOFTOP,"1550 Bryant St Bldg 200, San Francisco, CA 94103, USA",EjZCbGRnIDIwMCwgMTU1MCBCcnlhbnQgU3QsIFNhbiBGcmFuY2lzY28sIENBIDk0MTAzLCBVU0EiJBoiChYKFAoSCYMnwwovfo-AEYdKfDHAEDpsEghCbGRnIDIwMA,1550 Bryant St Bldg 200,37.7675413,-122.4112428,1,94103,OK,subpremise
350,ROOFTOP,"5800 Geary Blvd, San Francisco, CA 94121, USA",ChIJyahd6Q-HhYARlqaXu3GFXcM,5800 Geary St,37.7804754,-122.4817285,1,94121,OK,premise
351,ROOFTOP,"40789 Fremont Blvd #202, Fremont, CA 94538, USA",Ei8yMDIsIDQwNzg5IEZyZW1vbnQgQmx2ZCwgRnJlbW9udCwgQ0EgOTQ1MzgsIFVTQSIfGh0KFgoUChIJzVtTks7Aj4ARrMrtmFZO0BoSAzIwMg,40789 Fremont Blvd Apt 202,37.5348754,-121.9630237,1,94538,OK,subpremise
352,ROOFTOP,"6067 District Blvd, Maywood, CA 90270, USA",ChIJc1YAoZLOwoARYnjNFG0155Y,6067 District Blvd,33.9823951,-118.1709622,2,90270,OK,premise
353,ROOFTOP,"Four Embarcadero Center, 4 Embarcadero Center, San Francisco, CA 94111, USA",ChIJ3f_WL2GAhYARvFrWlN7Eejk,4 Embarcadero Center  Street Revel Ctr,37.7953898,-122.3961067,1,94111,OK,premise
354,ROOFTOP,"629 Catamaran St #3, Foster City, CA 94404, USA",Ei8zLCA2MjkgQ2F0YW1hcmFuIFN0LCBGb3N0ZXIgQ2l0eSwgQ0EgOTQ0MDQsIFVTQSIiGiAKGxIZChQKEgnbF7qR1ZiPgBH8uijvWRuZiBD1BBIBMw,629 Catamaran St Apt 3,37.552903,-122.262061,1,94404,OK,subpremise
355,ROOFTOP,"438 Broadway St #4, Columbus, GA 31901, USA",Eis0LCA0MzggQnJvYWR3YXkgU3QsIENvbHVtYnVzLCBHQSAzMTkwMSwgVVNBIh0aGwoWChQKEgmzkG2ykM2MiBFP1rm7RHgcphIBNA,438 Broadway St Apt 4,32.4547219,-84.99286579999999,1,31901,OK,subpremise
356,ROOFTOP,"931 Washington Blvd #120, Roseville, CA 95678, USA",EjIxMjAsIDkzMSBXYXNoaW5ndG9uIEJsdmQsIFJvc2V2aWxsZSwgQ0EgOTU2NzgsIFVTQSIfGh0KFgoUChIJuaQLBbMhm4ARipRz2QqJoywSAzEyMA,931 Washington Blvd Unit 120,38.7601655,-121.2935065,1,95678,OK,subpremise
357,ROOFTOP,"2325 Pine St, San Francisco, CA 94115, USA",ChIJIR8n68eAhYARJ9mdRctff1A,2325 Pine St,37.787704,-122.4340945,4,94115,OK,premise
358,ROOFTOP,"466 Haight St, San Francisco, CA 94117, USA",ChIJ-cK3yqaAhYART6Vkapq-DKA,466 Haight,37.772374,-122.4298475,2,94117,OK,premise
359,,,,1605 Jerrold Ctr,,,0,,ZERO_RESULTS,
360,ROOFTOP,"601 Grant Ave, San Francisco, CA 94108, USA",ChIJOVpgnIuAhYAR2a6R4pAZROY,601 Grant Ave,37.7925771,-122.4060725,2,94108,OK,street_address
361,ROOFTOP,"338 Fairmount Ave, Philadelphia, PA 19123, USA",ChIJLyZEaHvIxokRC7QKyh61szM,338 Fairmount Ave,39.9625038,-75.144448,3,19123,OK,premise
362,ROOFTOP,"522 Columbus Ave #522, Boston, MA 02118, USA",Eiw1MjIsIDUyMiBDb2x1bWJ1cyBBdmUsIEJvc3RvbiwgTUEgMDIxMTgsIFVTQSIfGh0KFgoUChIJS96DUxF644kRqUwLKX8HKtwSAzUyMg,522 522 Columbus Ave,42.3418644,-71.0798313,1,02118,OK,subpremise
363,ROOFTOP,"11984 Main St, Sunol, CA 94586, USA",ChIJQe1JJTLCj4ARhhQIHBgAdDY,11984 Main St,37.5936871,-121.888332,1,94586,OK,street_address
364,ROOFTOP,"1490 Ocean Ave # 1, Brooklyn, NY 11230, USA",ChIJGX9aV7ZEwokRclKVsi-uhUI,1490 Ocean Ave 1,40.625873,-73.956876,2,11230,OK,"dentist,establishment,health,point_of_interest"
365,APPROXIMATE,"Midvale, UT, USA",ChIJPzP351dgUocR5qpceVkZ6DA,59 Midvale Dr Bldg,40.6110589,-111.8999353,1,,OK,"locality,political"
366,ROOFTOP,"47 W 27th St 8th Floor, New York, NY 10001, USA",EjA4dGggRmxvb3IsIDQ3IFcgMjd0aCBTdCwgTmV3IFlvcmssIE5ZIDEwMDAxLCBVU0EiJRojChYKFAoSCXvms-ulWcKJEWUSVHMCxs6iEgk4dGggRmxvb3I,47 W 27th St 8th Floor,40.7452004,-73.99004,1,10001,OK,subpremise
367,ROOFTOP,"21 Crestwood Dr, Hamilton Township, NJ 08690, USA",ChIJPTcZgUJfwYkRScmNOnsOayc,21 Crestwood Dr #9,40.2411708,-74.6637155,2,08690,OK,premise
368,ROOFTOP,"548 Market St, San Francisco, CA 94104, USA",ChIJ0aFee2KAhYARdM9XYEmZ_WA,548 Market St 54137,37.7900465,-122.4008744,1,94104,OK,street_address
369,ROOFTOP,"1999 Hyde St, San Francisco, CA 94109, USA",ChIJGxE8xeiAhYARVdnQoXdlBnc,1999 Hyde St,37.7990839,-122.419181,2,94109,OK,street_address
370,ROOFTOP,"660 4th St #328, San Francisco, CA 94107, USA",Ei0zMjgsIDY2MCA0dGggU3QsIFNhbiBGcmFuY2lzY28sIENBIDk0MTA3LCBVU0EiHxodChYKFAoSCWVyDHjWf4-AEQGy4AQQlnxcEgMzMjg,660 4th St Ste 328,37.7773924,-122.3956947,1,94107,OK,subpremise
371,ROOFTOP,"912 Irving St NE, Washington, DC 20017, USA",ChIJuQjB2PPHt4kRivuH-x1uu9s,912 Irving St,38.9286009,-76.99303669999999,3,20017,OK,street_address
372,ROOFTOP,"410 Diamond St, San Francisco, CA 94114, USA",ChIJO3PIuA9-j4ARVDO2e4VvXhQ,410 Diamond St,37.7556723,-122.4369147,2,94114,OK,premise
373,APPROXIMATE,"St. Petersburg, FL, USA",ChIJQao6aWPmwogR_4vUvANAzAQ,49 Jefferson St P,27.7676008,-82.64029149999999,1,,OK,"locality,political"
374,ROOFTOP,"24 Willie Mays Plaza, San Francisco, CA 94107, USA",ChIJv_u-0dl_j4ARW9yHJWRSSqs,24 Willie Mays Pl Promenade Level Sec 106,37.7784199,-122.3906212,1,94107,OK,premise
375,ROOFTOP,"24 Willie Mays Plaza Level 2, San Francisco, CA 94107, USA",EjtMZXZlbCAyLCAyNCBXaWxsaWUgTWF5cyBQbGF6YSwgU2FuIEZyYW5jaXNjbywgQ0EgOTQxMDcsIFVTQSIjGiEKFgoUChIJv_u-0dl_j4ARW9yHJWRSSqsSB0xldmVsIDI,24 Willie Mays Pl Promenade Level 2,37.7784199,-122.3906212,1,94107,OK,subpremise
376,ROOFTOP,"24 Willie Mays Plaza, San Francisco, CA 94107, USA",ChIJv_u-0dl_j4ARW9yHJWRSSqs,24 Willie Mays Pl Promenade Lvl Sec 121,37.7784199,-122.3906212,1,94107,OK,premise
377,ROOFTOP,"24 Willie Mays Plaza, San Francisco, CA 94107, USA",ChIJv_u-0dl_j4ARW9yHJWRSSqs,24 Willie Mays Pl View Lvl Sec 319,37.7784199,-122.3906212,1,94107,OK,premise
378,ROOFTOP,"2901 16th St NW, Washington, DC 20009, USA",ChIJN75Ygd-3t4kRGpfj5zabVLQ,2901 16th St 402,38.9264647,-77.0360718,2,20009,OK,premise
379,ROOFTOP,"825 Minnesota St APT 7, San Francisco, CA 94107, USA",ChIJn85Vh7d_j4ARS2PWyyvRaOQ,825 Minnesota St Apt 7,37.7599781,-122.3900997,1,94107,OK,subpremise
380,ROOFTOP,"2500 Geary Blvd, San Francisco, CA 94115, USA",ChIJg_sKZbWAhYARezJCu846l4Y,2500 Geary Blvd,37.7828683,-122.4451313,1,94115,OK,street_address
381,ROOFTOP,"191 Pine St, San Francisco, CA 94111, USA",ChIJLdJuL2KAhYARuYYYJY9sAMo,191 Pine Street,37.7921581,-122.3992625,3,94111,OK,street_address
382,ROOFTOP,"320 O'Farrell St, San Francisco, CA 94102, USA",ChIJXxeIqI-AhYARkbz0rEnRcjk,320 O'farell St. St,37.7863074,-122.4104203,1,94102,OK,street_address
383,ROOFTOP,"425 Market Street, 425 Market St Fl 8, San Francisco, CA 94105, USA",EkRGbCA4LCA0MjUgTWFya2V0IFN0cmVldCwgNDI1IE1hcmtldCBTdCwgU2FuIEZyYW5jaXNjbywgQ0EgOTQxMDUsIFVTQSIgGh4KFgoUChIJV3fpsWOAhYARCvcakuTjJHcSBEZsIDg,425 Market St Fl 8,37.79119130000001,-122.3983658,1,94105,OK,subpremise
384,ROOFTOP,"2401 Utah Ave S, Seattle, WA 98134, USA",ChIJE4nkGCZAkFQR_fxYXHpRCNA,2401 Utah Ave,47.5810043,-122.3352823,3,98134,OK,street_address
385,ROOFTOP,"420 Mission Bay Boulevard North UNIT 403, San Francisco, CA 94158, USA",ChIJL7zKN8V_j4ARnb4HWsOgQUc,420 Mission Bay Blvd Unit 403,37.7715936,-122.3885893,1,94158,OK,subpremise
386,ROOFTOP,"2901 16th St NW, Washington, DC 20009, USA",ChIJN75Ygd-3t4kRGpfj5zabVLQ,2901 16th St,38.9264647,-77.0360718,8,20009,OK,premise
387,ROOFTOP,"900 North Point St, San Francisco, CA 94109, USA",ChIJmyXUw-CAhYAR47KEV9wlsC0,900 North Point,37.8058745,-122.4229535,2,94109,OK,street_address
388,ROOFTOP,"181 Fremont Street, 181 Fremont St 25th Fl, San Francisco, CA 94105, USA",EkkyNXRoIEZsLCAxODEgRnJlbW9udCBTdHJlZXQsIDE4MSBGcmVtb250IFN0LCBTYW4gRnJhbmNpc2NvLCBDQSA5NDEwNSwgVVNBIiMaIQoWChQKEgkr4TGkZICFgBF4vv2LOrZNZhIHMjV0aCBGbA,181 Fremont St 25th Fl,37.7898082,-122.3953565,1,94105,OK,subpremise
389,RANGE_INTERPOLATED,"646 Irving St, San Francisco, CA 94122, USA",Eis2NDYgSXJ2aW5nIFN0LCBTYW4gRnJhbmNpc2NvLCBDQSA5NDEyMiwgVVNBIhsSGQoUChIJxZZME1yHhYARQChtgnfMVRAQhgU,646 Irving St.,37.7642777,-122.4649801,2,94122,OK,street_address
390,GEOMETRIC_CENTER,"Beach St & The Embarcadero, San Francisco, CA 94133, United States",ChIJHSGzi_yAhYARnrPmDWAx9ro,Pier 39 204,37.80867300000001,-122.409821,1,94133,OK,"establishment,point_of_interest,premise,shopping_mall"
391,ROOFTOP,"474 3rd St, Atco, NJ 08004, USA",ChIJj3oUe9stwYkR8-a0m6yl5Ag,474 3rd Street,39.7760882,-74.8834921,1,08004,OK,premise
392,ROOFTOP,"2929 19th St, San Francisco, CA 94110, USA",ChIJj6l9Sjd-j4AR16mCKMlDdm8,2929 19th Street,37.760124,-122.411364,1,94110,OK,street_address
393,ROOFTOP,"1148 Mission St, San Francisco, CA 94103, USA",ChIJSV28T4OAhYARYEw1EJvWIyM,1148 Mission St,37.7784838,-122.4121893,1,94103,OK,street_address
394,ROOFTOP,"500 Church St, Marietta, GA 30060, USA",ChIJh5Nd3TgU9YgRYxvrHHWeP_U,500 Church St,33.963861,-84.54971719999999,2,30060,OK,premise
395,ROOFTOP,"1427 Noriega St, San Francisco, CA 94122, USA",ChIJWbckn2KHhYAR8Fmuhr4SECU,1427 Noriega St,37.7539633,-122.479139,1,94122,OK,street_address
396,ROOFTOP,"1000 Continentals Way, Belmont, CA 94002, USA",ChIJw9lEs3Cfj4ARcwI2gLJthUo,1000 Continentals Way  227,37.5118693,-122.3049052,1,94002,OK,"establishment,point_of_interest"
397,ROOFTOP,"4018 E 24th St, Des Moines, IA 50317, USA",ChIJTQoueK-Q7ocRzCN1R5Dki_8,4018 24th St Unit,41.6343548,-93.5734794,1,50317,OK,premise
398,GEOMETRIC_CENTER,"Mission Bay Boulevard South, San Francisco, CA, USA",ChIJGbWMasV_j4ARHZjQ1q7XWFI,Mission Bay St,37.7705791,-122.3911931,3,,OK,route
399,ROOFTOP,"2123 Polk St, San Francisco, CA 94109, USA",ChIJycBZvemAhYARXjqPIX1H2b0,2123 Polk St,37.7963314,-122.4219997,2,94109,OK,street_address
400,ROOFTOP,"791 O'Farrell St, San Francisco, CA 94109, USA",ChIJNWQJJZGAhYAR4hRorbnwYUs,791 O' Farrell St,37.7850428,-122.4174595,1,94109,OK,premise
401,ROOFTOP,"3251 Pierce St, San Francisco, CA 94123, USA",ChIJtR9Wv9aAhYAR25sHGnMwGNk,3251 Peirce St,37.800117,-122.4397083,1,94123,OK,street_address
402,ROOFTOP,"939 Page St, Berkeley, CA 94710, USA",ChIJZULJlc9-hYARgGyBEuqrik8,939 Page St,37.8772053,-122.2977074,1,94710,OK,premise
403,ROOFTOP,"140 San Diego Ave, San Bruno, CA 94066, USA",ChIJxZsMyXd3j4AR4Ghc5-UDVP0,140 San Diego Ave,37.6130314,-122.4026362,2,94066,OK,premise
404,ROOFTOP,"1229 Page St, San Francisco, CA 94117, USA",ChIJ64g2IayAhYARqPkOMVrTYIY,1229 Page St Apt,37.7715973,-122.4413152,1,94117,OK,street_address
405,ROOFTOP,"807 Valencia St, San Francisco, CA 94110, USA",ChIJW438AT1-j4ARjtL5M6K7i2o,807 Valencia St,37.7598916,-122.4212583,1,94110,OK,street_address
406,ROOFTOP,"2904 Jackson St #1, San Francisco, CA 94115, USA",EjAxLCAyOTA0IEphY2tzb24gU3QsIFNhbiBGcmFuY2lzY28sIENBIDk0MTE1LCBVU0EiHRobChYKFAoSCaXbqLrNgIWAEfNpHF2pb8-nEgEx,2904 Jackson St Apt 1,37.791612,-122.44315,1,94115,OK,subpremise
407,ROOFTOP,"200 Folsom St, San Francisco, CA 94105, USA",ChIJcXtx2nqAhYAR_S9kvw8SlEU,200 Folsom St,37.789264,-122.3925242,1,94105,OK,premise
408,ROOFTOP,"360 Jefferson St, Brooklyn, NY 11237, USA",ChIJtxA0zgJcwokR9t2_kAxp-a8,360 Jefferson St,40.705463,-73.9247303,1,11237,OK,premise
409,ROOFTOP,"245 Market St, San Francisco, CA 94105, USA",ChIJ3VXk8WOAhYARu3ORRrwJXYQ,245 Market St 3,37.7925413,-122.3961531,2,94105,OK,premise
410,ROOFTOP,"393 Eddy St, San Francisco, CA 94102, USA",ChIJ3TxxC5CAhYARSM9S7GDBXRI,393 Eddy St St,37.783622,-122.4140304,2,94102,OK,street_address
411,ROOFTOP,"393 Eddy St, San Francisco, CA 94102, USA",ChIJ3TxxC5CAhYARSM9S7GDBXRI,393 Eddt St,37.783622,-122.4140304,2,94102,OK,street_address
412,ROOFTOP,"Terminal 3, San Francisco, CA 94128, USA",ChIJvxNJ0Y93j4ARBYZ9SUhO39A,Terminal 3 Courtyard  T3b031,37.61993,-122.3874941,1,94128,OK,premise
413,ROOFTOP,"120 Powell St, San Francisco, CA 94102, USA",ChIJcRBOTo-AhYARoTPJuAx_G8Y,120 Powell St,37.7859557,-122.4077287,2,94102,OK,street_address
414,ROOFTOP,"553 Seagate Way, Belmont, CA 94002, USA",ChIJaZ0LTEifj4ARRdjxPYiO7-4,553 Seagate Way,37.528558,-122.2741173,1,94002,OK,premise
415,ROOFTOP,"2506 Fillmore St, San Francisco, CA 94115, USA",ChIJOe97lMWAhYARO8y-MXV2oZg,2506 Fillmore St,37.7926968,-122.4343157,2,94115,OK,premise
416,ROOFTOP,"4 E 3rd St, New York, NY 10003, USA",ChIJ_3Ht0IRZwokRUkTwLogkodQ,5430 3rd Street  Unit 4d,40.7260967,-73.99131729999999,1,10003,OK,street_address
417,ROOFTOP,"908 Ohio Ave, Long Beach, CA 90804, USA",ChIJHYatYgox3YAR9_2rO7jmJfA,908 Ohio Ave,33.7782705,-118.1598242,2,90804,OK,street_address
418,ROOFTOP,"777 Florida St #306, San Francisco, CA 94110, USA",ChIJX9aUIjd-j4ARcX5-ntGhcIY,777 Florida St Ste 306,37.75942089999999,-122.4105231,1,94110,OK,subpremise
419,ROOFTOP,"1030 N Washington St, Denver, CO 80203, USA",ChIJlTdyPtF-bIcR6dlKbMm4bUk,1030 Washington St,39.7327357,-104.9784289,2,80203,OK,premise
420,ROOFTOP,"67 Rolph St, San Francisco, CA 94112, USA",ChIJwRS6nJt-j4ARQ7v6OO8rfzI,67 Rolph St,37.7153918,-122.4403302,1,94112,OK,premise
421,ROOFTOP,"555 Buena Vista Ave W #101, San Francisco, CA 94117, USA",EjgxMDEsIDU1NSBCdWVuYSBWaXN0YSBBdmUgVywgU2FuIEZyYW5jaXNjbywgQ0EgOTQxMTcsIFVTQSIfGh0KFgoUChIJcQQtWqqAhYARWpgxW0DHc8oSAzEwMQ,555 Buena Vista Ave Apt 101,37.7663423,-122.4435832,1,94117,OK,subpremise
422,ROOFTOP,"2518 Las Gallinas Ave, San Rafael, CA 94903, USA",ChIJ2XxbavyXhYAR6vvM3kDI-EA,2518 Las Gallinas Av,38.0340934,-122.5445439,1,94903,OK,premise
423,ROOFTOP,"737 Washington St, New York, NY 10014, USA",ChIJN_og4OpZwokRajUzHe5bB3Q,737 Washington St,40.7364347,-74.0080469,1,10014,OK,premise
424,ROOFTOP,"73 Calvert Ct, Piedmont, CA 94611, USA",ChIJ4S819XiHj4AR98kjyYhSch8,73 Calvert Ct,37.8256648,-122.2214471,1,94611,OK,premise
425,ROOFTOP,"1100 Market St, San Francisco, CA 94102, USA",ChIJs3830oSAhYARutfn0p8HPUI,1100 Merket St,37.7809129,-122.4125538,3,94102,OK,street_address
426,ROOFTOP,"705 Virginia Ave, Auburndale, FL 33823, USA",ChIJm5_20jdr3YgRF6RVp22GmB0,705 Virginia St,28.0633612,-81.80152269999999,3,33823,OK,premise
427,ROOFTOP,"174 Coleridge Green, Fremont, CA 94538, USA",ChIJk85ngyLHj4ARUbkLg3XvwIg,174 Coleridge Green,37.511676,-121.9564558,1,94538,OK,street_address
428,ROOFTOP,"1 Neptune St #10, Newburyport, MA 01950, USA",EiwxMCwgMSBOZXB0dW5lIFN0LCBOZXdidXJ5cG9ydCwgTUEgMDE5NTAsIFVTQSIiGiAKGhIYChQKEgkLKymlVODiiREB2me9BrAOYhABEgIxMA,10 1/2 Neptune St,42.8050035,-70.859118,1,01950,OK,subpremise
429,ROOFTOP,"2699 Taylor St, Grove, OK 74344, USA",ChIJjzNM0Ao0yIcR_p5H31Ugs4Q,2699 Taylor St,36.5779517,-94.80855129999999,1,74344,OK,premise
430,ROOFTOP,"670 Monterey Blvd #7, San Francisco, CA 94127, USA",EjI3LCA2NzAgTW9udGVyZXkgQmx2ZCwgU2FuIEZyYW5jaXNjbywgQ0EgOTQxMjcsIFVTQSIdGhsKFgoUChIJTY1AHNd9j4ARL6ru3odkk78SATc,670 Monterey Blvd Apt 7,37.7317656,-122.4505057,1,94127,OK,subpremise
431,ROOFTOP,"550 Washington St, New York, NY 10014, USA",ChIJCSbCYfJZwokRrMscytE3-gA,550 Washington St,40.7284286,-74.0098588,3,10014,OK,street_address
432,ROOFTOP,"455 Market St #140, San Francisco, CA 94105, USA",EjAxNDAsIDQ1NSBNYXJrZXQgU3QsIFNhbiBGcmFuY2lzY28sIENBIDk0MTA1LCBVU0EiHxodChYKFAoSCY9r3qxjgIWAERMAGnmqyHoSEgMxNDA,455 Market St Ste 140,37.79079189999999,-122.3984543,1,94105,OK,subpremise
433,ROOFTOP,"290 Alhambra St #2, San Francisco, CA 94123, USA",EjAyLCAyOTAgQWxoYW1icmEgU3QsIFNhbiBGcmFuY2lzY28sIENBIDk0MTIzLCBVU0EiHRobChYKFAoSCRXld9XVgIWAEYirbi0zXzoAEgEy,290 Alhambra St Apt 2,37.80126540000001,-122.4411342,1,94123,OK,subpremise
434,ROOFTOP,"1906 Market St, San Francisco, CA 94102, USA",ChIJi9BhDKCAhYARQfhRa5r2VFY,1906 Market St #768,37.7706499,-122.4253107,1,94102,OK,street_address
435,ROOFTOP,"101 Spear St, San Francisco, CA 94105, USA",ChIJE_x2VGSAhYARoXDSoUvUjkI,101 Spear St 16 & 17,37.7924983,-122.3931387,1,94105,OK,"establishment,food,point_of_interest,restaurant"
436,ROOFTOP,"251 Rhode Island St #207, San Francisco, CA 94103, USA",EjYyMDcsIDI1MSBSaG9kZSBJc2xhbmQgU3QsIFNhbiBGcmFuY2lzY28sIENBIDk0MTAzLCBVU0EiHxodChYKFAoSCVPCKLkyfo-AEeBSAdtj7ubkEgMyMDc,251 Rhode Island  Apt 207,37.766538,-122.4023928,1,94103,OK,subpremise
437,ROOFTOP,"91 6th St, Whitehall, PA 18052, USA",ChIJYVUzkgw5xIkRFP2aslwPUg0,91 6th St St,40.6210257,-75.4740932,2,18052,OK,premise
438,ROOFTOP,"408 S 3rd St, St Peter, MN 56082, USA",ChIJDfWi_zAz9IcRnHRKMwfbueE,3rd St,44.3236272,-93.9598723,1,56082,OK,"bar,establishment,food,point_of_interest,restaurant"
439,ROOFTOP,"396 Harrison St #100, Elmhurst, IL 60126, USA",Ei0xMDAsIDM5NiBIYXJyaXNvbiBTdCwgRWxtaHVyc3QsIElMIDYwMTI2LCBVU0EiJBoiChsSGQoUChIJ81TB5HpLDogR24sxSDek5kgQjAMSAzEwMA,396 Harrison St Ste 100,41.8693945,-87.9258306,1,60126,OK,subpremise
440,ROOFTOP,"637 3rd St NE #4, Washington, DC 20002, USA",Eis0LCA2MzcgM3JkIFN0IE5FLCBXYXNoaW5ndG9uLCBEQyAyMDAwMiwgVVNBIh0aGwoWChQKEgnHYo91I7i3iRFPcF8qpFYEARIBNA,637 3rd St Apt 4,38.8983564,-77.0017234,1,20002,OK,subpremise
441,ROOFTOP,"1541 Sloat Blvd, San Francisco, CA 94132, USA",ChIJrUCwoZ99j4ARcmFhlhwEoE0,1541 Sloat Blvd,37.73241,-122.4906324,1,94132,OK,street_address
442,ROOFTOP,"105 W Hillsdale Blvd, San Mateo, CA 94403, USA",ChIJd0ekxASfj4ARbKdCaRQk9YA,105 Hillsdale Blvd,37.5346636,-122.3004479,2,94403,OK,street_address
443,ROOFTOP,"5901 Mission St b, San Francisco, CA 94112, USA",ChIJ8zn84yN8j4AR0K2UEUte7Qo,5901 Mission St B,37.708547,-122.452713,1,94112,OK,"establishment,point_of_interest,store"
444,ROOFTOP,"400 Fir St, Neodesha, KS 66757, USA",ChIJoTeLTmY0uIcRIZ6L4T3MXOA,At&t Rm 2134 24 Willie Mays Plaza Promenade Level 2,37.4362961,-95.6795162,1,66757,OK,"establishment,health,point_of_interest"
445,ROOFTOP,"400 Fir St, Neodesha, KS 66757, USA",ChIJoTeLTmY0uIcRIZ6L4T3MXOA,At&t Rm 3209 24 Willie Mays Plaza Club Level 3,37.4362961,-95.6795162,1,66757,OK,"establishment,health,point_of_interest"
446,ROOFTOP,"400 Fir St, Neodesha, KS 66757, USA",ChIJoTeLTmY0uIcRIZ6L4T3MXOA,At&t V05 24 Willie Mays Plaza View Level 4,37.4362961,-95.6795162,1,66757,OK,"establishment,health,point_of_interest"
447,ROOFTOP,"400 Fir St, Neodesha, KS 66757, USA",ChIJoTeLTmY0uIcRIZ6L4T3MXOA,At&t Portable Bar 24 Willie Mays Plaza Club Level 3,37.4362961,-95.6795162,1,66757,OK,"establishment,health,point_of_interest"
448,ROOFTOP,"555 Market St #1800, San Francisco, CA 94105, USA",ChIJb3G2aGGAhYARJBWx3Fi9yK0,555 Market St. - Floors 2 4 & 5 St,37.78999840000001,-122.3999175,1,94105,OK,"establishment,point_of_interest"
449,ROOFTOP,"555 Market St, San Francisco, CA 94105, USA",ChIJbe1g9WKAhYARkvgowaGoOzo,555 Market St. - Floors 6 7 & 8 St,37.7899845,-122.3998704,1,94105,OK,premise
450,ROOFTOP,"555 Market St, San Francisco, CA 94105, USA",ChIJbe1g9WKAhYARkvgowaGoOzo,555 Market St. - Floors 9 10 & 11 St,37.7899845,-122.3998704,1,94105,OK,premise
451,ROOFTOP,"555 Market St, San Francisco, CA 94105, USA",ChIJbe1g9WKAhYARkvgowaGoOzo,555 Market St. - Floors 12 13 &14 St,37.7899845,-122.3998704,1,94105,OK,premise
452,ROOFTOP,"555 Market St, San Francisco, CA 94105, USA",ChIJbe1g9WKAhYARkvgowaGoOzo,555 Market St. - Floors 15 16 & 17 St,37.7899845,-122.3998704,1,94105,OK,premise
453,ROOFTOP,"555 Market St, San Francisco, CA 94105, USA",ChIJbe1g9WKAhYARkvgowaGoOzo,555 Market St. - Floors 19 20 & 21 St,37.7899845,-122.3998704,1,94105,OK,premise
454,ROOFTOP,"685 Market St, San Francisco, CA 94103, USA",ChIJCbOhFIiAhYAR6Zd4aPj-FgY,685 Market St. - Floors 7 8 & 9 St,37.7877269,-122.4026141,1,94103,OK,premise
455,ROOFTOP,"685 Market St Floor 10, San Francisco, CA 94103, USA",EjVGbG9vciAxMCwgNjg1IE1hcmtldCBTdCwgU2FuIEZyYW5jaXNjbywgQ0EgOTQxMDMsIFVTQSIkGiIKFgoUChIJCbOhFIiAhYAR6Zd4aPj-FgYSCEZsb29yIDEw,685 Market St. - Floor 10 St,37.7877269,-122.4026141,1,94103,OK,subpremise
456,ROOFTOP,"103 Horn Ct, Baytown, TX 77523, USA",ChIJbe3oQTpEP4YRIOP_YAihap0,103 Horn St,29.8268835,-94.8245835,1,77523,OK,premise
457,ROOFTOP,"2247 Orleans Dr, Pinole, CA 94564, USA",ChIJaSY1j-92hYAR8BulDIxn0Qs,2247 Orleans Dr,38.0098168,-122.2974859,1,94564,OK,premise
458,ROOFTOP,"960 4th St, Lafayette, CA 94549, USA",ChIJ71gAlUZihYARraIH6v5R4bc,960 4th St,37.8916137,-122.110882,1,94549,OK,premise
459,ROOFTOP,"26 Magnolia St, Bergenfield, NJ 07621, USA",ChIJ0ah4wlnwwokRK4_ArzBTmbg,26 Magnolia St,40.9184506,-73.99570899999999,1,07621,OK,premise
460,ROOFTOP,"92 2nd St, Hackensack, NJ 07601, USA",ChIJl6mK9h_6wokRh7oD3OTW-RQ,92 2nd St,40.8843367,-74.0532372,2,07601,OK,premise
461,ROOFTOP,"4995 Mission St, San Francisco, CA 94112, USA",ChIJrbT6zIR-j4ARUSDgC24nVkg,4995 Mission St,37.7184901,-122.4391818,1,94112,OK,premise
462,ROOFTOP,"213 Accolade Dr, San Leandro, CA 94577, USA",ChIJvQZdUYCPj4ARJIqwv-T4Mew,213 Accolade Dr,37.731248,-122.172156,1,94577,OK,street_address
463,ROOFTOP,"55 9th St #1411, San Francisco, CA 94103, USA",Ei0xNDExLCA1NSA5dGggU3QsIFNhbiBGcmFuY2lzY28sIENBIDk0MTAzLCBVU0EiIBoeChYKFAoSCaNAjIycgIWAEUVibh18FgRGEgQxNDEx,55 9th St Apt 1411,37.7771637,-122.4151808,1,94103,OK,subpremise
464,ROOFTOP,"746 Geary St, San Francisco, CA 94109, USA",ChIJFS-ad5GAhYAREseb_zl-wDc,746 Geary St 403,37.7866309,-122.4156233,2,94109,OK,premise
465,ROOFTOP,"958 Geneva Ave, San Francisco, CA 94112, USA",ChIJL1N_d5t-j4ARXe6cvQ-LNXc,958 Geneva Ave,37.7157716,-122.4403609,1,94112,OK,premise
466,ROOFTOP,"1745 Taraval, San Francisco, CA 94116, USA",ChIJj8wdtYR9j4ARH9nFb96iDJA,1745 Taraval St,37.742462,-122.4850448,1,94116,OK,premise
467,ROOFTOP,"832 Clement St, San Francisco, CA 94118, USA",ChIJ_dcXnD2HhYARvMepTQBT0XY,832 Clement St St,37.7829256,-122.4682694,1,94118,OK,street_address
468,ROOFTOP,"855 Brannan St, San Francisco, CA 94103, USA",ChIJx4FjfSt-j4ARSO3EF-TgS-w,855 Brannan St,37.7720197,-122.4034548,1,94103,OK,premise
469,ROOFTOP,"4 Embarcadero Center #101, San Francisco, CA 94111, USA",ChIJMREIT16AhYAR0uCl-LOekL0,4 Embarcadero Ctr 101,37.795361,-122.396567,1,94111,OK,"establishment,food,point_of_interest,restaurant"
470,ROOFTOP,"Landmark Building C, 2 Marina Blvd, San Francisco, CA 94123, USA",ChIJdye3otiAhYAR0myKT_RuJ6I,Off The Grid,37.8067864,-122.4314179,1,94123,OK,"establishment,point_of_interest"
471,ROOFTOP,"428 11th St, Brooklyn, NY 11215, USA",ChIJKyGZSv1awokRrI4D1-2KKZ8,428 11 St,40.6663846,-73.98446059999999,1,11215,OK,premise
472,ROOFTOP,"790 Pennsylvania Ave, San Francisco, CA 94107, USA",ChIJYY7S_LB_j4AR7MLxTj8beHE,790 Pennsylvania Ave,37.7566949,-122.3941361,1,94107,OK,street_address
473,ROOFTOP,"1105 Bush St, San Francisco, CA 94109, USA",ChIJBclSs5OAhYARj7rDpB5ZhFA,1105 Bush St 303,37.789095,-122.415581,2,94109,OK,street_address
474,ROOFTOP,"1150 Illinois St, Sheridan, WY 82801, USA",ChIJLcg4IqD6NVMRAz9QRtW50eU,1150 Illinois St,44.78545159999999,-106.9505249,3,82801,OK,premise
475,ROOFTOP,"325 Maple Ave #23, Torrance, CA 90503, USA",EioyMywgMzI1IE1hcGxlIEF2ZSwgVG9ycmFuY2UsIENBIDkwNTAzLCBVU0EiHhocChYKFAoSCZ31ldMotcKAEe9WHmxZ_Er5EgIyMw,325 Maple Ave Ste 23,33.8468876,-118.3405332,1,90503,OK,subpremise
476,ROOFTOP,"410 China Basin St, San Francisco, CA 94158, USA",ChIJ14RJ09p_j4ARH_nOCBUWSb8,410 China Basin St,37.7723683,-122.3876559,1,94158,OK,premise
477,ROOFTOP,"584 Castro St # 509, San Francisco, CA 94114, USA",ChIJe84Gzhp-j4AR8wzxLmn8qWA,584 Castro St 509,37.7596077,-122.4351526,1,94114,OK,"establishment,point_of_interest"
478,ROOFTOP,"1650 Holloway Ave, San Francisco, CA 94132, USA",ChIJU922dbF9j4ARgEGbVgVxgNI,1650 Holloway Ave Sb108,37.7223946,-122.4786143,1,94132,OK,street_address
479,RANGE_INTERPOLATED,"3440 Balboa Ave, San Diego, CA 92117, USA",EikzNDQwIEJhbGJvYSBBdmUsIFNhbiBEaWVnbywgQ0EgOTIxMTcsIFVTQSIbEhkKFAoSCdGa0RhIANyAEWQOPgyBSTcSEPAa,3440 Balboa Ave,32.8081594,-117.2097823,1,92117,OK,street_address
480,ROOFTOP,"334 Leavenworth St #15, San Francisco, CA 94102, USA",EjQxNSwgMzM0IExlYXZlbndvcnRoIFN0LCBTYW4gRnJhbmNpc2NvLCBDQSA5NDEwMiwgVVNBIh4aHAoWChQKEgk_si5rkICFgBGguX2K1VPNPhICMTU,334 Leavenworth St Apt 15,37.7842571,-122.4141742,1,94102,OK,subpremise
481,ROOFTOP,"1500 S Van Ness Ave #100, San Francisco, CA 94110, USA",ChIJU6YGJpWAhYARVUhhcBd6plo,1500 South Van Ness Ave Suite 100 Ave,37.749027,-122.416141,1,94110,OK,"establishment,food,point_of_interest,restaurant"
482,ROOFTOP,"1737 Post St, San Francisco, CA 94115, USA",ChIJD5nH17iAhYARgkFAdxQx0eE,1737 Post St #337,37.785329,-122.430369,1,94115,OK,street_address
483,GEOMETRIC_CENTER,"Sutter St, Folsom, CA 95630, USA",ChIJC64jkqzmmoARtgan2dQ47Wg,Sutter St,38.67700689999999,-121.177728,10,95630,OK,route
484,ROOFTOP,"601 19th St, Ocean City, NJ 08226, USA",ChIJK7eO31mVwIkR8l4GB0gJIvk,601 19th St,39.2670008,-74.58891349999999,2,08226,OK,premise
485,ROOFTOP,"1519 Polk St, San Francisco, CA 94109, USA",ChIJH0CAKeuAhYARluDrlmEaX4M,1519 Polk St,37.7909522,-122.4210713,2,94109,OK,street_address
486,ROOFTOP,"1450 47th Ave NE Apt A, Minneapolis, MN 55421, USA",EjNBcHQgQSwgMTQ1MCA0N3RoIEF2ZSBORSwgTWlubmVhcG9saXMsIE1OIDU1NDIxLCBVU0EiIRofChYKFAoSCVkGCbVELrNSEe0d-dZeRlN2EgVBcHQgQQ,1450 47th Ave Apt A,45.0533496,-93.2394314,1,55421,OK,subpremise
487,ROOFTOP,"5114 3rd St, San Francisco, CA 94124, USA",ChIJU7WzxRp_j4ARO0wHEMmKTZs,5114 3rd St,37.7321029,-122.3918301,2,94124,OK,street_address
488,ROOFTOP,"3251 20th Ave, San Francisco, CA 94132, USA",ChIJP5NLubt9j4AR9_zxLgJGWTg,3251 20th Ave 159,37.7280817,-122.4770808,2,94132,OK,street_address
489,ROOFTOP,"523 Broadway St, Birmingham, AL 35209, USA",ChIJW0GYvEcZiYgRwGk1BuuUZ_A,523 Broadway St,33.466435,-86.810193,2,35209,OK,street_address
490,ROOFTOP,"108 Bertha Ln, Jacksboro, TN 37757, USA",ChIJ0XoGm-lRXIgRFmQ5YciBXlQ,108 Bertha Ln,36.309797,-84.166792,2,37757,OK,street_address
491,ROOFTOP,"244 Clement St, San Francisco, CA 94118, USA",ChIJMfB52zuHhYARg1o1XyeOgAs,244 Clement Street,37.7833314,-122.4618947,1,94118,OK,premise
492,ROOFTOP,"2069 O'Farrell St, San Francisco, CA 94115, USA",ChIJ3V0V-raAhYAReigWXPFBlYE,2069 O'farrell St.,37.7824298,-122.4388515,1,94115,OK,street_address
493,ROOFTOP,"564 S Van Ness Ave, Los Angeles, CA 90020, USA",ChIJz4nYDZG4woAR_lDJnMCFUAE,564 Van Ness Ave,34.063447,-118.3151676,4,90020,OK,premise
494,ROOFTOP,"175 Bluxome St UNIT 129, San Francisco, CA 94107, USA",ChIJ9xHpk9R_j4AR0FF3jIcNotk,175 Bluxome St Unit 129,37.77437889999999,-122.3995747,1,94107,OK,subpremise
495,ROOFTOP,"1424 Yosemite Ave, San Francisco, CA 94124, USA",ChIJ7a5wxBd_j4ARNwe1jHlG2OE,1424 Yosemite Ave,37.72526,-122.3882976,4,94124,OK,premise
496,ROOFTOP,"50 Hagiwara Tea Garden Dr, San Francisco, CA 94118, USA",ChIJOe1W90GHhYARFX5jEuIPRpI,50 Hagiwara Tea Garden Dr,37.7714775,-122.4687303,1,94118,OK,premise
497,ROOFTOP,"3568 Bridgeway Lakes Dr, West Sacramento, CA 95691, USA",ChIJGRzaTKbTmoARf0IFWBB9HBY,3568 Bridgeway Lakes Dr,38.5324104,-121.579775,1,95691,OK,premise
498,ROOFTOP,"2276 Chestnut St, Livermore, CA 94551, USA",ChIJGzOSa6Hnj4ARK3KdPHUMQMQ,2276 Chestnut St,37.6859641,-121.7696542,1,94551,OK,premise
499,ROOFTOP,"750 Gonzalez Dr, San Francisco, CA 94132, USA",ChIJi5a4ha19j4ARoILfK0p83kQ,750 Gonzalez Dr,37.7177603,-122.4811758,1,94132,OK,"establishment,point_of_interest,premise"
500,ROOFTOP,"3378 18th St, San Francisco, CA 94110, USA",ChIJLX7HpTx-j4ARXq42g0Ee-jk,3378 18th St,37.7620489,-122.4188753,1,94110,OK,premise
501,ROOFTOP,"1005 Chester St, Bristol, VA 24201, USA",ChIJDY1yeXd2UIgRR4mYeaaZz6c,1005 Chester St,36.608705,-82.182712,3,24201,OK,street_address
502,ROOFTOP,"1005 Chester St, Bristol, VA 24201, USA",ChIJDY1yeXd2UIgRR4mYeaaZz6c,1005 Chester Street,36.608705,-82.182712,2,24201,OK,street_address
503,ROOFTOP,"Market Center, 575 Market St #3825, San Francisco, CA 94105, USA",EkAzODI1LCBNYXJrZXQgQ2VudGVyLCA1NzUgTWFya2V0IFN0LCBTYW4gRnJhbmNpc2NvLCBDQSA5NDEwNSwgVVNBIiAaHgoWChQKEgm12wGMYoCFgBHm4Pye7MZ84xIEMzgyNQ,575 Market Street  Ste 3825,37.7895508,-122.4003129,1,94105,OK,subpremise
504,ROOFTOP,"321 W Portal Ave, San Francisco, CA 94127, USA",ChIJ4-sXAcB9j4ARgsitf2uFTFA,321 West Portal Ave,37.7375309,-122.4691808,1,94127,OK,premise
505,ROOFTOP,"321 W Portal Ave Ste A, San Francisco, CA 94127, USA",EjVTdGUgQSwgMzIxIFcgUG9ydGFsIEF2ZSwgU2FuIEZyYW5jaXNjbywgQ0EgOTQxMjcsIFVTQSIhGh8KFgoUChIJ4-sXAcB9j4ARgsitf2uFTFASBVN0ZSBB,321 Portal Ave Ste A,37.7375309,-122.4691808,1,94127,OK,subpremise
506,ROOFTOP,"2315 Highgate Dr, Richmond, CA 94806, USA",ChIJhcL7pch3hYARwQZe91abOw0,2315 Highgate St,37.9782087,-122.3383409,1,94806,OK,premise
507,ROOFTOP,"303 2nd St, San Francisco, CA 94107, USA",ChIJQdd29XuAhYARlLzH0JbNTyQ,303 2nd Street,37.7856757,-122.3958433,1,94107,OK,premise
508,ROOFTOP,"80 W Plumas Ave, Portola, CA 96122, USA",ChIJX4bQ2lwUnIAREPXRGyUKgpM,80 Plumas St St,39.81224400000001,-120.471193,1,96122,OK,street_address
509,ROOFTOP,"2948 Folsom St, San Francisco, CA 94110, USA",ChIJG19DC0Z-j4ARWakc7F5RtWw,2948 Folsom St Bldg,37.7501624,-122.4141189,1,94110,OK,premise
510,ROOFTOP,"3459 Mission St, San Francisco, CA 94110, USA",ChIJj5EAFl1-j4ARgA5wwKkgQUs,3459 Mission Street,37.7414449,-122.4223374,1,94110,OK,premise
511,RANGE_INTERPOLATED,"1990 Jerrold Ave, San Francisco, CA 94124, USA",Ei4xOTkwIEplcnJvbGQgQXZlLCBTYW4gRnJhbmNpc2NvLCBDQSA5NDEyNCwgVVNBIhsSGQoUChIJO36Jr6t_j4ARmBDDBIiQOR8Qxg8,1990 Jerrold Avenue,37.7433701,-122.3977355,1,94124,OK,street_address
512,ROOFTOP,"500 Guerrero St, San Francisco, CA 94110, USA",ChIJe4pXeBh-j4ARxDWWOkBnQ58,500 Guerrero St,37.7630249,-122.4241968,1,94110,OK,premise
513,ROOFTOP,"2675 Ocean Ave, Brooklyn, NY 11229, USA",ChIJsSgg34hEwokRKpQZnu8zrSo,2675 Ocean Avenue,40.595967,-73.9504018,1,11229,OK,premise
514,ROOFTOP,"1058 Gaddis Ct, Santa Rosa, CA 95404, USA",ChIJ62NuavBHhIARMuWCxWGA4wo,1058 Gaddis Ctr,38.4510337,-122.7084974,1,95404,OK,premise
515,ROOFTOP,"10 Fishermans Wharf, San Francisco, CA 94133, USA",ChIJnY2QGR6BhYARLtvSOLF35Mw,10 Fishermans Wharf,37.8107836,-122.4188203,1,94133,OK,"establishment,food,point_of_interest"
516,ROOFTOP,"5203 Geary Blvd, San Francisco, CA 94118, USA",ChIJ5WyOMxGHhYARBcKYo-lC6M0,5203 Geary Blvd,37.7802701,-122.4752724,1,94118,OK,premise
517,ROOFTOP,"1954 48th Ave, San Francisco, CA 94116, USA",ChIJ9WXxzI6HhYARLSojC0SM3WA,1954 48th Ave,37.74998799999999,-122.5071399,2,94116,OK,premise
518,ROOFTOP,"1525 Bancroft Ave, Montgomery, AL 36116, USA",ChIJ3z2orWmAjogRYG_d6IcaVks,1525 Bancroft Ave,32.3208785,-86.2829658,4,36116,OK,premise
519,RANGE_INTERPOLATED,"2847 Taylor St, San Francisco, CA 94133, USA",EiwyODQ3IFRheWxvciBTdCwgU2FuIEZyYW5jaXNjbywgQ0EgOTQxMzMsIFVTQSIbEhkKFAoSCUXVbKvjgIWAET6HhcGQG4PiEJ8W,2847 Taylor St Bldg,37.8089738,-122.4158486,1,94133,OK,street_address
520,ROOFTOP,"833 Oxford Ave, Marina Del Rey, CA 90292, USA",ChIJfaxy5I-6woARSu-5B-eD0kY,833 Oxford St,33.9862072,-118.4509577,1,90292,OK,premise
521,GEOMETRIC_CENTER,"San Francisco International Airport (SFO), San Francisco, CA 94128, USA",ChIJVVVVVYx3j4ARP-3NGldc8qQ,Space B.2.235 San Francisco Airport,37.6213129,-122.3789554,1,94128,OK,"airport,establishment,point_of_interest"
522,ROOFTOP,"218 Jersey St, San Francisco, CA 94114, USA",ChIJ8X1lXhN-j4ARDdI-_gSHS5I,218 Jersey St,37.7508534,-122.4300371,2,94114,OK,street_address
523,ROOFTOP,"435 Brannan St, San Francisco, CA 94107, USA",ChIJ90OdENZ_j4ARyEuCY0aFwj4,435 Brannan Street,37.779027,-122.3948255,1,94107,OK,premise
524,ROOFTOP,"3300 Cesar Chavez, San Francisco, CA 94110, USA",ChIJP_BhNkR-j4ARRG4Nx8PbNKA,1760 Cesar Chaves St L,37.7485398,-122.4161921,2,94110,OK,"car_repair,establishment,point_of_interest"
525,ROOFTOP,"3251 20th Ave #5523, San Francisco, CA 94132, USA",EjE1NTIzLCAzMjUxIDIwdGggQXZlLCBTYW4gRnJhbmNpc2NvLCBDQSA5NDEzMiwgVVNBIiAaHgoWChQKEgk_k0u5u32PgBH3_PEuAkZZOBIENTUyMw,3251 20th Ave Ste 5523,37.7280817,-122.4770808,1,94132,OK,subpremise
526,ROOFTOP,"741 Anderson St, San Francisco, CA 94110, USA",ChIJ177pyvd-j4ARnzFJpWxe1tw,741 Anderson St St,37.7340981,-122.4155237,1,94110,OK,premise
527,ROOFTOP,"3441 Mission St, San Francisco, CA 94110, USA",ChIJYdSFPl1-j4AR5InvT6iz_dc,3441 Mission St,37.74158510000001,-122.4223382,1,94110,OK,street_address
528,ROOFTOP,"2011 Bayshore Blvd, San Francisco, CA 94124, USA",ChIJu4EpHCd_j4ARPvFHmv3RwkU,2011 Bayshore Blvd,37.7149697,-122.3987871,2,94124,OK,street_address
529,ROOFTOP,"1881 Geary Blvd, San Francisco, CA 94115, USA",ChIJl33wyLmAhYAR8SC4ECGPtBg,1881 Geary Blvd,37.7837501,-122.4342376,1,94115,OK,street_address
530,ROOFTOP,"4285 Mission St, San Francisco, CA 94112, USA",ChIJTWMikYl-j4ARXkOd_GHGpuQ,4285 Mission St,37.7289105,-122.4307323,1,94112,OK,premise
531,ROOFTOP,"1221 Polk St, San Francisco, CA 94109, USA",ChIJ93q5W5SAhYARarBymn3Ik4Q,1221 Polk St,37.7881417,-122.4203423,5,94109,OK,street_address
532,ROOFTOP,"2026 Irving St, San Francisco, CA 94122, USA",ChIJR3Mx7m-HhYARPcZaD8MWuhg,2026 Irving St,37.7636478,-122.4798127,1,94122,OK,premise
533,ROOFTOP,"1659 Divisadero St, San Francisco, CA 94115, USA",ChIJjff048mAhYAR8bTNlvT6Lj8,1659 Divisadero St,37.7850815,-122.4400443,2,94115,OK,street_address
534,ROOFTOP,"300 19th St, Ocean City, NJ 08226, USA",ChIJ293XlVeVwIkRSMcwG3Zadss,300 19th Ave,39.2684837,-74.5913846,1,08226,OK,premise
535,ROOFTOP,"1812 Divisadero St, San Francisco, CA 94115, USA",ChIJEVjnlsmAhYARflxORGQgNt0,1812 Divisadero St,37.7864695,-122.4399115,2,94115,OK,street_address
536,ROOFTOP,"800 Clement St, San Francisco, CA 94118, USA",ChIJmydYoj2HhYAR0I8Wm-6C8Q8,800 Clement St,37.7829633,-122.4678211,2,94118,OK,street_address
537,ROOFTOP,"924 Sansome St, San Francisco, CA 94111, USA",ChIJxUsfg_WAhYARu6IN2FAnQy4,924 Sansome St,37.7990559,-122.402083,1,94111,OK,premise
538,,,,1250 Grove St 7,,,0,,ZERO_RESULTS,
539,ROOFTOP,"450 Post St 4th Fl, San Francisco, CA 94102, USA",EjE0dGggRmwsIDQ1MCBQb3N0IFN0LCBTYW4gRnJhbmNpc2NvLCBDQSA5NDEwMiwgVVNBIiIaIAoWChQKEgkH1y3zjoCFgBF4JYZepyXY1RIGNHRoIEZs,450 Post St 4th Fl,37.7882994,-122.4093357,1,94102,OK,subpremise
540,ROOFTOP,"1153 Valencia St, San Francisco, CA 94110, USA",ChIJM-NBBT9-j4AR1yySCoR_6Ps,1153 Valencia St,37.7545322,-122.4205566,2,94110,OK,premise
541,ROOFTOP,"721 Irving St, Denver, CO 80204, USA",ChIJgc4ZxVV_bIcRwRttDQkvieQ,721 Irving St,39.7281875,-105.0302861,2,80204,OK,premise
542,ROOFTOP,"2951 N 24th St, Philadelphia, PA 19132, USA",ChIJ_QHp1gm4xokRToc4jyBAn0Q,2951 24th St,40.0004379,-75.1696207,8,19132,OK,premise
543,ROOFTOP,"4901 Mission St, San Francisco, CA 94112, USA",ChIJvacUIIV-j4ARdjO_hiJTA_4,4901-05 Mission St,37.719897,-122.4382779,2,94112,OK,street_address
544,ROOFTOP,"5346 Geary Blvd, San Francisco, CA 94121, USA",ChIJVxL64hCHhYARKG4mCyGl2nU,5346 Geary Blvd,37.7807171,-122.4770739,1,94121,OK,street_address
545,,,,101 4th St 164,,,0,,ZERO_RESULTS,
546,ROOFTOP,"Four Embarcadero Center, 4 Embarcadero Center, San Francisco, CA 94111, USA",ChIJ3f_WL2GAhYARvFrWlN7Eejk,4 Embarcadero Cntr,37.7953898,-122.3961067,1,94111,OK,premise
547,ROOFTOP,"660 Sacramento St, San Francisco, CA 94111, USA",ChIJffyh_oqAhYARrPHuFM1C8DI,660 Sacramento St,37.793807,-122.4039637,2,94111,OK,premise
548,ROOFTOP,"1700 Ocean Ave, Santa Monica, CA 90401, USA",ChIJrek8l9akwoARxR1pUOusKnw,1700 Ocean Ave,34.0089738,-118.4928741,1,90401,OK,premise
549,ROOFTOP,"2405 Ocean Ave, San Francisco, CA 94127, USA",ChIJITqLe7h9j4ARZqP_9N8qX64,2405 Ocean Ave,37.7300095,-122.4698773,1,94127,OK,street_address
550,ROOFTOP,"Two Embarcadero Center, 2 Embarcadero Center, San Francisco, CA 94111, USA",ChIJuU5vB2GAhYAR6zVEBjcyh0s,2 Embarcadero Cntr Str Lvl,37.79478810000001,-122.3984101,1,94111,OK,premise
551,ROOFTOP,"Four Embarcadero Center, 4 Embarcadero Center, San Francisco, CA 94111, USA",ChIJ3f_WL2GAhYARvFrWlN7Eejk,4 Embarcadero Center St Level,37.7953898,-122.3961067,1,94111,OK,premise
552,ROOFTOP,"865 Market St, San Francisco, CA 94103, USA",ChIJrZxI34WAhYARcySSMXoScFM,865 Market St 146,37.7840659,-122.4065571,2,94103,OK,street_address
553,ROOFTOP,"300 Bayshore Blvd, San Francisco, CA 94124, USA",ChIJD9PnilN-j4ARVlqogMsrQcI,300 Bayshore Blvd. A,37.7430905,-122.4056231,2,94124,OK,premise
554,ROOFTOP,"845 Market St, San Francisco, CA 94103, USA",ChIJy4kpbIaAhYARnaAg1xAryzU,845 Market St Fe-138,37.784219,-122.406176,1,94103,OK,street_address
555,ROOFTOP,"3251 20th Ave, San Francisco, CA 94132, USA",ChIJP5NLubt9j4AR9_zxLgJGWTg,3251 20th Ave #250i,37.7280817,-122.4770808,1,94132,OK,street_address
556,ROOFTOP,"324 Hayes St, Salinas, CA 93906, USA",ChIJaxQOADT_jYARBCBHIJ49zJ8,324 Hayes St,36.697856,-121.656789,3,93906,OK,street_address
557,ROOFTOP,"2526 3rd St, San Francisco, CA 94107, USA",ChIJOz17Ibp_j4ARolRA3CEhntA,2526 3rd Street,37.7575292,-122.388523,2,94107,OK,"establishment,food,point_of_interest,restaurant"
558,ROOFTOP,"2435 Lombard St, San Francisco, CA 94123, USA",ChIJYdrMBtSAhYAR1DCkMjzbefI,2435 Lombard St,37.7988767,-122.4414378,1,94123,OK,premise
559,ROOFTOP,"1523 Sloat Blvd, San Francisco, CA 94132, USA",ChIJtUasxp99j4ARJGvLGgSIBmQ,1523 Sloat Blvd,37.7324406,-122.4899813,1,94132,OK,street_address
560,ROOFTOP,"2883 Mission St, San Francisco, CA 94110, USA",ChIJGWtk1kZ-j4AR_ZXHMqwAjvY,2883 Mission St,37.75098819999999,-122.4180347,1,94110,OK,premise
561,ROOFTOP,"25 Russia Ave, San Francisco, CA 94112, USA",ChIJBdbbn4V-j4ARpZbCKZbYE2A,25 Russia Ave,37.7214225,-122.4366318,1,94112,OK,street_address
562,ROOFTOP,"333 Jefferson St #104, San Francisco, CA 94133, USA",ChIJlZ7a1uOAhYARY0P4oYgCL44,333 Jefferson St 104,37.8078058,-122.4178406,1,94133,OK,"establishment,food,point_of_interest,restaurant"
563,ROOFTOP,"865 Market St C10, San Francisco, CA 94103, USA",EjBDMTAsIDg2NSBNYXJrZXQgU3QsIFNhbiBGcmFuY2lzY28sIENBIDk0MTAzLCBVU0EiHxodChYKFAoSCa2cSN-FgIWAEXMkkjF6EnBTEgNDMTA,865 Market St C10,37.7840659,-122.4065571,1,94103,OK,subpremise
564,ROOFTOP,"1633 Haight St, San Francisco, CA 94117, USA",ChIJqbpMBlOHhYARKfgG6U3ejfE,1633 Haight St,37.769619,-122.449291,1,94117,OK,street_address
565,,,,109 4th St 1035,,,0,,ZERO_RESULTS,
566,ROOFTOP,"434 25th St, Santa Monica, CA 90402, USA",ChIJmVjFB6ukwoARS4M0dZ2tT8o,434 25th St,34.0442569,-118.4892436,2,90402,OK,premise
567,ROOFTOP,"3251 20th Ave OP183, San Francisco, CA 94132, USA",ChIJd2XJR7p9j4AR3lyXCQZ9Css,3251 20th Ave Op183,37.72764129999999,-122.4765991,1,94132,OK,subpremise
568,ROOFTOP,"1362 Stockton St, San Francisco, CA 94133, USA",ChIJU7cbw_OAhYAROQmDSnMHerA,1362 Stockton St,37.7984886,-122.4086339,4,94133,OK,street_address
569,ROOFTOP,"700 Filbert St, San Francisco, CA 94133, USA",ChIJNeWoSfCAhYAR4OZXeqvKveo,700 Filbert St,37.8012975,-122.4112456,3,94133,OK,street_address
570,ROOFTOP,"2338 Mission St, San Francisco, CA 94110, USA",ChIJIdtTbzx-j4AR8ZGyvUNXeKs,2338 Mission St,37.7595827,-122.4194719,1,94110,OK,premise
571,ROOFTOP,"1177 Indiana St, San Francisco, CA 94107, USA",ChIJHYRimbB_j4ARv2lFAf2km5k,1177 Indiana St,37.7556494,-122.3905673,1,94107,OK,street_address
572,ROOFTOP,"3050 Taraval, San Francisco, CA 94116, USA",ChIJhSHI8nt9j4AROoeLjeugQHY,3050 Taraval St,37.74221199999999,-122.499029,1,94116,OK,street_address
573,ROOFTOP,"161 Steuart St, San Francisco, CA 94105, USA",ChIJT71Pr2WAhYARFgavoFvhB-U,161 Steuart St,37.7926439,-122.3922179,1,94105,OK,street_address
574,ROOFTOP,"4004 3rd St, San Francisco, CA 94124, USA",ChIJE8I0YAh_j4AR2yMWSQ8i1Fw,4004 3rd St,37.7410475,-122.3888398,1,94124,OK,premise
575,ROOFTOP,"902 Point Lobos Ave, San Francisco, CA 94121, USA",ChIJPclmCbWHhYARzrL4XMLT5t8,902 Point Lobos Ave,37.7792727,-122.5127652,1,94121,OK,premise
576,ROOFTOP,"698 Brannan St, San Francisco, CA 94107, USA",ChIJs6wg1NR_j4ARfiBCUVDi044,698 Brannan St,37.7750692,-122.4009269,1,94107,OK,street_address
577,ROOFTOP,"38 Bryant St, San Francisco, CA 94105, USA",ChIJn3a2v3CAhYAR5d01MZfbY6I,38 Bryant St Unit #3,37.7873536,-122.3888066,1,94105,OK,premise
578,ROOFTOP,"2800 Leavenworth St a44, San Francisco, CA 94133, USA",ChIJSQ3gYuGAhYARMjJX13tRQ30,2800 Leavenworth St 50,37.80730459999999,-122.4183932,1,94133,OK,"car_rental,establishment,point_of_interest"
579,ROOFTOP,"115 Sansome St #300, San Francisco, CA 94104, USA",ChIJFWaTTniAhYARSd8cH5TwZWY,115 Sansome St 300,37.7914157,-122.4010848,1,94104,OK,"establishment,point_of_interest"
580,ROOFTOP,"288 Connecticut St, San Francisco, CA 94107, USA",ChIJcextsMt_j4ARLPOwsREpb6U,288 Connecticut St,37.7626393,-122.3978126,1,94107,OK,premise
581,ROOFTOP,"508 Valencia St, San Francisco, CA 94110, USA",ChIJbx6TWiJ-j4ARA2LLpxAen7o,508 Valencia St,37.764658,-122.4220747,1,94110,OK,street_address
582,ROOFTOP,"86 Bridgeview Dr, San Francisco, CA 94124, USA",ChIJX7NJcAR_j4ARn-cPEVbapEg,86 Bridgeview Dr,37.7349634,-122.3951574,1,94124,OK,premise
583,ROOFTOP,"307 Church St, Yorkville, IL 60560, USA",ChIJbSsYIEnqDogRXmBkzz1plFs,307 Church St,41.6468379,-88.4479065,1,60560,OK,street_address
584,ROOFTOP,"3111 Fillmore St, San Francisco, CA 94123, USA",ChIJyb9nhtCAhYARoPjVAun78s8,3111 Fillmore St,37.7982121,-122.4359692,5,94123,OK,street_address
585,ROOFTOP,"476 Turk St, San Francisco, CA 94102, USA",ChIJRUT6oZCAhYARVA0pG79pzk4,476 Turk St,37.7825554,-122.4169332,1,94102,OK,street_address
586,ROOFTOP,"538 Valencia St, San Francisco, CA 94110, USA",ChIJmx1VWCJ-j4ARWmQUvUVOS80,538 Valencia St,37.764282,-122.4221162,1,94110,OK,subpremise
587,ROOFTOP,"2100 Van Ness Ave, San Francisco, CA 94109, USA",ChIJXQ4S9OmAhYARbIZg-x9hVhg,2100 Van Ness Ave,37.7950668,-122.4229237,1,94109,OK,premise
588,ROOFTOP,"3107 Fillmore St, San Francisco, CA 94123, USA",ChIJiw9BhtCAhYARhOmduCErvzE,3107 Fillmore St 303,37.7981847,-122.4359223,2,94123,OK,street_address
589,ROOFTOP,"703 Guerrero St, San Francisco, CA 94110, USA",ChIJmQRRbz1-j4ARu6Zm1umFMMY,703 Guerrero St,37.7598598,-122.4233583,1,94110,OK,premise
590,ROOFTOP,"508 Haight St, San Francisco, CA 94117, USA",ChIJz29jx6aAhYARVev5kvlAGMk,508 Haight St,37.772197,-122.430674,1,94117,OK,street_address
591,ROOFTOP,"3349 Mission St, San Francisco, CA 94110, USA",ChIJo7kkKkN-j4ARokIrA3cRi-s,3349 Mission St,37.7432586,-122.4211318,1,94110,OK,premise
592,ROOFTOP,"728 Geary St, San Francisco, CA 94109, USA",ChIJnYJenpGAhYARmFVhMoyoY9Y,728 Geary St,37.7866381,-122.4153578,2,94109,OK,premise
593,RANGE_INTERPOLATED,"2241 Chestnut St, Philadelphia, PA 19103, USA",Ei0yMjQxIENoZXN0bnV0IFN0LCBQaGlsYWRlbHBoaWEsIFBBIDE5MTAzLCBVU0EiGxIZChQKEgkRbE7fN8bGiRGFMWbLG7TXLxDBEQ,2241-45 Chestnut St,39.952868,-75.1779471,1,19103,OK,street_address
594,ROOFTOP,"2401 Noriega St, San Francisco, CA 94122, USA",ChIJxXenBH-HhYARgLBsuNCAjpY,2401 Noriega St,37.7534296,-122.4894567,1,94122,OK,street_address
595,ROOFTOP,"1800 Divisadero St, San Francisco, CA 94115, USA",ChIJdV8FlMmAhYARjCCVVzT2EBY,1800 Divisadero St,37.7863514,-122.4399768,2,94115,OK,street_address
596,ROOFTOP,"2699 Mission St, San Francisco, CA 94110, USA",ChIJP2FdTT9-j4ARTWVIJWrARJY,2699 Mission St,37.7539694,-122.418442,1,94110,OK,street_address
597,ROOFTOP,"1688 Bryant St, San Francisco, CA 94103, USA",ChIJE0vYxC9-j4ARAD4v-ZWjMzg,1688 Bryant St,37.7658138,-122.4108053,1,94103,OK,street_address
598,ROOFTOP,"1347 Folsom St, San Francisco, CA 94103, USA",ChIJjy13cih-j4ARZPKN9HMdx0Y,1347 Folsom St,37.7730651,-122.4121056,1,94103,OK,premise
599,ROOFTOP,"500 Howard St, San Francisco, CA 94105, USA",ChIJadwMs3yAhYARkOzoXmRhx7I,500 Howard St 102,37.7885306,-122.3967284,2,94105,OK,premise
